{"features":[{"type":"Feature","geometry":{"type":"Point","coordinates":[5.540616,51.760106]},"properties":{"cellid":"47c6fcf94a3b1fb3","marker-color":"#40B0F0","name":"Stop: 2 Pipes [pipes]","title":"Stop: 2 Pipes [pipes]","marker-size":"small","marker-symbol":"circle-stroked"}},{"type":"Feature","geometry":{"type":"Point","coordinates":[5.531531,51.776036]},"properties":{"cellid":"47c6fc44a44d64bf","marker-color":"#40B0F0","name":"Stop: Archeologische Opgravingen [opgraving]","title":"Stop: Archeologische Opgravingen [opgraving]","marker-size":"small","marker-symbol":"circle-stroked"}},{"type":"Feature","geometry":{"type":"Point","coordinates":[5.526701,51.765491]},"properties":{"cellid":"47c6fc5f658b3a23","marker-color":"#40B0F0","name":"Stop: Bacchus","title":"Stop: Bacchus","marker-size":"small","marker-symbol":"circle-stroked"}},{"type":"Feature","geometry":{"type":"Point","coordinates":[5.521139,51.767566]},"properties":{"cellid":"47c6fc60608b63b9","marker-color":"#40B0F0","name":"Stop: Baloon Popper [baloon; ballon; popper]","title":"Stop: Baloon Popper [baloon; ballon; popper]","marker-size":"small","marker-symbol":"circle-stroked"}},{"type":"Feature","geometry":{"type":"Point","coordinates":[5.537265,51.760287]},"properties":{"cellid":"47c6fcf998c9bb25","marker-color":"#40B0F0","name":"Stop: Basketbal Field Zuiderpark [zuiderpark; field zuiderpark]","title":"Stop: Basketbal Field Zuiderpark [zuiderpark; field zuiderpark]","marker-size":"small","marker-symbol":"circle-stroked"}},{"type":"Feature","geometry":{"type":"Point","coordinates":[5.500207,51.776244]},"properties":{"cellid":"47c6fc78246b95dd","marker-color":"#40B0F0","name":"Stop: Basketbalveld","title":"Stop: Basketbalveld","marker-size":"small","marker-symbol":"circle-stroked"}},{"type":"Feature","geometry":{"type":"Point","coordinates":[5.513307,51.766123]},"properties":{"cellid":"47c6fc627aada93d","marker-color":"#40B0F0","name":"Stop: Bermakker Voetbalveld [bermakker]","title":"Stop: Bermakker Voetbalveld [bermakker]","marker-size":"small","marker-symbol":"circle-stroked"}},{"type":"Feature","geometry":{"type":"Point","coordinates":[5.521897,51.763808]},"properties":{"cellid":"47c6fc8ab54f4ced","marker-color":"#40B0F0","name":"Stop: Bibliotheek","title":"Stop: Bibliotheek","marker-size":"small","marker-symbol":"circle-stroked"}},{"type":"Feature","geometry":{"type":"Point","coordinates":[5.513163,51.754456]},"properties":{"cellid":"47c6fc91f96e9761","marker-color":"#40B0F0","name":"Stop: Blikmikker","title":"Stop: Blikmikker","marker-size":"small","marker-symbol":"circle-stroked"}},{"type":"Feature","geometry":{"type":"Point","coordinates":[5.516682,51.781877]},"properties":{"cellid":"47c6fc6c3ad603ab","marker-color":"#40B0F0","name":"Stop: Bronzen Ooievaar [ooievaar]","title":"Stop: Bronzen Ooievaar [ooievaar]","marker-size":"small","marker-symbol":"circle-stroked"}},{"type":"Feature","geometry":{"type":"Point","coordinates":[5.512274,51.751888]},"properties":{"cellid":"47c6fc917a3fcdff","marker-color":"#40B0F0","name":"Stop: Buurtbewoners","title":"Stop: Buurtbewoners","marker-size":"small","marker-symbol":"circle-stroked"}},{"type":"Feature","geometry":{"type":"Point","coordinates":[5.511083,51.752204]},"properties":{"cellid":"47c6fc910a369d2d","marker-color":"#40B0F0","name":"Stop: Camphuysen Speeltuin [camphuysen]","title":"Stop: Camphuysen Speeltuin [camphuysen]","marker-size":"small","marker-symbol":"circle-stroked"}},{"type":"Feature","geometry":{"type":"Point","coordinates":[5.5237,51.756898]},"properties":{"cellid":"47c6fcf2ffa8c3c1","marker-color":"#40B0F0","name":"Stop: Cross Zwanenberg","title":"Stop: Cross Zwanenberg","marker-size":"small","marker-symbol":"circle-stroked"}},{"type":"Feature","geometry":{"type":"Point","coordinates":[5.545068,51.769153]},"properties":{"cellid":"47c6fc5477b18c1f","marker-color":"#40B0F0","name":"Stop: CRUYFF COURT FC OSS [cruyff court]","title":"Stop: CRUYFF COURT FC OSS [cruyff court]","marker-size":"small","marker-symbol":"circle-stroked"}},{"type":"Feature","geometry":{"type":"Point","coordinates":[5.504999,51.746291]},"properties":{"cellid":"47c6fc982138cf8f","marker-color":"#40B0F0","name":"Stop: Da Costa Speeltuin [da costa; da costastraat; costa]","title":"Stop: Da Costa Speeltuin [da costa; da costastraat; costa]","marker-size":"small","marker-symbol":"circle-stroked"}},{"type":"Feature","geometry":{"type":"Point","coordinates":[5.520792,51.763445]},"properties":{"cellid":"47c6fc8ac42f57ab","marker-color":"#40B0F0","name":"Stop: De 3 Zitjes Van Thus V Kimmenade [3 zitjes]","title":"Stop: De 3 Zitjes Van Thus V Kimmenade [3 zitjes]","marker-size":"small","marker-symbol":"circle-stroked"}},{"type":"Feature","geometry":{"type":"Point","coordinates":[5.498913,51.776988]},"properties":{"cellid":"47c6fc77f995c637","marker-color":"#40B0F0","name":"Stop: De Duiker [duiker]","title":"Stop: De Duiker [duiker]","marker-size":"small","marker-symbol":"circle-stroked"}},{"type":"Feature","geometry":{"type":"Point","coordinates":[5.515381,51.776756]},"properties":{"cellid":"47c6fc6f70372bcd","marker-color":"#40B0F0","name":"Stop: De Edelen [edelen]","title":"Stop: De Edelen [edelen]","marker-size":"small","marker-symbol":"circle-stroked"}},{"type":"Feature","geometry":{"type":"Point","coordinates":[5.525561,51.769635]},"properties":{"cellid":"47c6fc5e70766213","marker-color":"#40B0F0","name":"Stop: De Harlekijn [harlekijn]","title":"Stop: De Harlekijn [harlekijn]","marker-size":"small","marker-symbol":"circle-stroked"}},{"type":"Feature","geometry":{"type":"Point","coordinates":[5.516733,51.751101]},"properties":{"cellid":"47c6fc930e8057c5","marker-color":"#40B0F0","name":"Stop: De Slang [slang]","title":"Stop: De Slang [slang]","marker-size":"small","marker-symbol":"circle-stroked"}},{"type":"Feature","geometry":{"type":"Point","coordinates":[5.532947,51.768573]},"properties":{"cellid":"47c6fc599f9ba349","marker-color":"#40B0F0","name":"Stop: De Trekschuit [trekschuit]","title":"Stop: De Trekschuit [trekschuit]","marker-size":"small","marker-symbol":"circle-stroked"}},{"type":"Feature","geometry":{"type":"Point","coordinates":[5.49413,51.760731]},"properties":{"cellid":"47c6fb7de4a8dad5","marker-color":"#40B0F0","name":"Stop: De Voetbal [voetbal]","title":"Stop: De Voetbal [voetbal]","marker-size":"small","marker-symbol":"circle-stroked"}},{"type":"Feature","geometry":{"type":"Point","coordinates":[5.521523,51.774125]},"properties":{"cellid":"47c6fc67b7620ef5","marker-color":"#40B0F0","name":"Stop: De Zonnende Dame [zonnende dame]","title":"Stop: De Zonnende Dame [zonnende dame]","marker-size":"small","marker-symbol":"circle-stroked"}},{"type":"Feature","geometry":{"type":"Point","coordinates":[5.520768,51.763812]},"properties":{"cellid":"47c6fc8ab8a6483b","marker-color":"#40B0F0","name":"Stop: Dierlijke figuren","title":"Stop: Dierlijke figuren","marker-size":"small","marker-symbol":"circle-stroked"}},{"type":"Feature","geometry":{"type":"Point","coordinates":[5.542352,51.748951]},"properties":{"cellid":"47c6fce232136a19","marker-color":"#40B0F0","name":"Stop: Docfapark Playground [docfapark]","title":"Stop: Docfapark Playground [docfapark]","marker-size":"small","marker-symbol":"circle-stroked"}},{"type":"Feature","geometry":{"type":"Point","coordinates":[5.51666,51.768487]},"properties":{"cellid":"47c6fc617c85acc3","marker-color":"#40B0F0","name":"Stop: Dorus Hoeks Speeltuin [dorus; dorus hoeks]","title":"Stop: Dorus Hoeks Speeltuin [dorus; dorus hoeks]","marker-size":"small","marker-symbol":"circle-stroked"}},{"type":"Feature","geometry":{"type":"Point","coordinates":[5.533989,51.767668]},"properties":{"cellid":"47c6fc59b704bed7","marker-color":"#40B0F0","name":"Stop: Dr. Adrianus van der Steen [adrianus van der steen; van der steen; adrianus]","title":"Stop: Dr. Adrianus van der Steen [adrianus van der steen; van der steen; adrianus]","marker-size":"small","marker-symbol":"circle-stroked"}},{"type":"Feature","geometry":{"type":"Point","coordinates":[5.535332,51.778382]},"properties":{"cellid":"47c6fc45b1cdad11","marker-color":"#40B0F0","name":"Stop: Drenkkuil","title":"Stop: Drenkkuil","marker-size":"small","marker-symbol":"circle-stroked"}},{"type":"Feature","geometry":{"type":"Point","coordinates":[5.495756,51.769352]},"properties":{"cellid":"47c6fb808f3e3d4b","marker-color":"#40B0F0","name":"Stop: Drijvende Constructie Ijzertijdboerderij [drijvende constructie]","title":"Stop: Drijvende Constructie Ijzertijdboerderij [drijvende constructie]","marker-size":"small","marker-symbol":"circle-stroked"}},{"type":"Feature","geometry":{"type":"Point","coordinates":[5.503139,51.74604]},"properties":{"cellid":"47c6fc9869edf35b","marker-color":"#40B0F0","name":"Stop: Drijvershof Speeltuin [drijvershof]","title":"Stop: Drijvershof Speeltuin [drijvershof]","marker-size":"small","marker-symbol":"circle-stroked"}},{"type":"Feature","geometry":{"type":"Point","coordinates":[5.526225,51.771367]},"properties":{"cellid":"47c6fc5dc9bd7911","marker-color":"#40B0F0","name":"Stop: Engel In Boom [engel]","title":"Stop: Engel In Boom [engel]","marker-size":"small","marker-symbol":"circle-stroked"}},{"type":"Feature","geometry":{"type":"Point","coordinates":[5.534395,51.755311]},"properties":{"cellid":"47c6fcfa97b845ef","marker-color":"#40B0F0","name":"Stop: Female Rights Memorial [female rights]","title":"Stop: Female Rights Memorial [female rights]","marker-size":"small","marker-symbol":"circle-stroked"}},{"type":"Feature","geometry":{"type":"Point","coordinates":[5.509252,51.764333]},"properties":{"cellid":"47c6fc8874ace5a5","marker-color":"#40B0F0","name":"Stop: Fontein","title":"Stop: Fontein","marker-size":"small","marker-symbol":"circle-stroked"}},{"type":"Feature","geometry":{"type":"Point","coordinates":[5.524216,51.776532]},"properties":{"cellid":"47c6fc681c27dc23","marker-color":"#40B0F0","name":"Stop: Fontein Rusheuvel [rusheuvel]","title":"Stop: Fontein Rusheuvel [rusheuvel]","marker-size":"small","marker-symbol":"circle-stroked"}},{"type":"Feature","geometry":{"type":"Point","coordinates":[5.525956,51.765172]},"properties":{"cellid":"47c6fc5f7c04c355","marker-color":"#40B0F0","name":"Stop: Fountain","title":"Stop: Fountain","marker-size":"small","marker-symbol":"circle-stroked"}},{"type":"Feature","geometry":{"type":"Point","coordinates":[5.519938,51.779847]},"properties":{"cellid":"47c6fc6940fac601","marker-color":"#40B0F0","name":"Stop: Fruithapje","title":"Stop: Fruithapje","marker-size":"small","marker-symbol":"circle-stroked"}},{"type":"Feature","geometry":{"type":"Point","coordinates":[5.51028,51.753631]},"properties":{"cellid":"47c6fc91b598b80f","marker-color":"#40B0F0","name":"Stop: Gedicht Camphuysenstraat [camphuysenstraat]","title":"Stop: Gedicht Camphuysenstraat [camphuysenstraat]","marker-size":"small","marker-symbol":"circle-stroked"}},{"type":"Feature","geometry":{"type":"Point","coordinates":[5.523896,51.76669]},"properties":{"cellid":"47c6fc5fc6c48475","marker-color":"#40B0F0","name":"Stop: Gedicht Haarviltstraat [haarviltstraat]","title":"Stop: Gedicht Haarviltstraat [haarviltstraat]","marker-size":"small","marker-symbol":"circle-stroked"}},{"type":"Feature","geometry":{"type":"Point","coordinates":[5.508291,51.752342]},"properties":{"cellid":"47c6fc90f51b178f","marker-color":"#40B0F0","name":"Stop: Gedicht spieghelstraat [spiegelstraat]","title":"Stop: Gedicht spieghelstraat [spiegelstraat]","marker-size":"small","marker-symbol":"circle-stroked"}},{"type":"Feature","geometry":{"type":"Point","coordinates":[5.509607,51.751884]},"properties":{"cellid":"47c6fc90fd728bfb","marker-color":"#40B0F0","name":"Stop: Gedicht Vd Nootstr [nootstraat]","title":"Stop: Gedicht Vd Nootstr [nootstraat]","marker-size":"small","marker-symbol":"circle-stroked"}},{"type":"Feature","geometry":{"type":"Point","coordinates":[5.508847,51.752507]},"properties":{"cellid":"47c6fc90586f7b3f","marker-color":"#40B0F0","name":"Stop: Gedicht Vd Nootstr [constantijn huygensstraat]","title":"Stop: Gedicht Vd Nootstr [constantijn huygensstraat]","marker-size":"small","marker-symbol":"circle-stroked"}},{"type":"Feature","geometry":{"type":"Point","coordinates":[5.514251,51.773474]},"properties":{"cellid":"47c6fc65ab10c4cd","marker-color":"#40B0F0","name":"Stop: Gekleurde Hand","title":"Stop: Gekleurde Hand","marker-size":"small","marker-symbol":"circle-stroked"}},{"type":"Feature","geometry":{"type":"Point","coordinates":[5.524724,51.764741]},"properties":{"cellid":"47c6fcf57ce6896d","marker-color":"#40B0F0","name":"Stop: Gemeentehuis Oss","title":"Stop: Gemeentehuis Oss","marker-size":"small","marker-symbol":"circle-stroked"}},{"type":"Feature","geometry":{"type":"Point","coordinates":[5.532118,51.768597]},"properties":{"cellid":"47c6fc5972d07219","marker-color":"#40B0F0","name":"Stop: Gereformeerde Kerk","title":"Stop: Gereformeerde Kerk","marker-size":"small","marker-symbol":"circle-stroked"}},{"type":"Feature","geometry":{"type":"Point","coordinates":[5.522513,51.770921]},"properties":{"cellid":"47c6fc674fe0d9ef","marker-color":"#40B0F0","name":"Stop: Gift to the City","title":"Stop: Gift to the City","marker-size":"small","marker-symbol":"circle-stroked"}},{"type":"Feature","geometry":{"type":"Point","coordinates":[5.505546,51.77139]},"properties":{"cellid":"47c6fc7b8b9e300f","marker-color":"#40B0F0","name":"Stop: Glijbaan Stippelmot [stippelmot]","title":"Stop: Glijbaan Stippelmot [stippelmot]","marker-size":"small","marker-symbol":"circle-stroked"}},{"type":"Feature","geometry":{"type":"Point","coordinates":[5.500082,51.772638]},"properties":{"cellid":"47c6fc78dd97706b","marker-color":"#40B0F0","name":"Stop: Glijbaan Suikerkampstraat [suikerstampstraat]","title":"Stop: Glijbaan Suikerkampstraat [suikerstampstraat]","marker-size":"small","marker-symbol":"circle-stroked"}},{"type":"Feature","geometry":{"type":"Point","coordinates":[5.496053,51.773554]},"properties":{"cellid":"47c6fb876d7d75c9","marker-color":"#40B0F0","name":"Stop: Glijbaan Zalm [zalm]","title":"Stop: Glijbaan Zalm [zalm]","marker-size":"small","marker-symbol":"circle-stroked"}},{"type":"Feature","geometry":{"type":"Point","coordinates":[5.525818,51.771524]},"properties":{"cellid":"47c6fc5db8715aa1","marker-color":"#40B0F0","name":"Stop: Glimmende Bal","title":"Stop: Glimmende Bal","marker-size":"small","marker-symbol":"circle-stroked"}},{"type":"Feature","geometry":{"type":"Point","coordinates":[5.510208,51.763845]},"properties":{"cellid":"47c6fc8869086055","marker-color":"#40B0F0","name":"Stop: Grafengel","title":"Stop: Grafengel","marker-size":"small","marker-symbol":"circle-stroked"}},{"type":"Feature","geometry":{"type":"Point","coordinates":[5.496907,51.77684]},"properties":{"cellid":"47c6fb880a065b3b","marker-color":"#40B0F0","name":"Stop: Groene Wipkip [wipkip]","title":"Stop: Groene Wipkip [wipkip]","marker-size":"small","marker-symbol":"circle-stroked"}},{"type":"Feature","geometry":{"type":"Point","coordinates":[5.53289,51.779059]},"properties":{"cellid":"47c6fc446b46447f","marker-color":"#40B0F0","name":"Stop: Grote Kuil","title":"Stop: Grote Kuil","marker-size":"small","marker-symbol":"circle-stroked"}},{"type":"Feature","geometry":{"type":"Point","coordinates":[5.506187,51.75789]},"properties":{"cellid":"47c6fc859e2ead61","marker-color":"#40B0F0","name":"Stop: Hand at Station; Oss West [hand at station; oss west]","title":"Stop: Hand at Station; Oss West [hand at station; oss west]","marker-size":"small","marker-symbol":"circle-stroked"}},{"type":"Feature","geometry":{"type":"Point","coordinates":[5.499971,51.762927]},"properties":{"cellid":"47c6fc811986fac1","marker-color":"#40B0F0","name":"Stop: Hand Paal","title":"Stop: Hand Paal","marker-size":"small","marker-symbol":"circle-stroked"}},{"type":"Feature","geometry":{"type":"Point","coordinates":[5.512129,51.764991]},"properties":{"cellid":"47c6fc882d05886d","marker-color":"#40B0F0","name":"Stop: Hands","title":"Stop: Hands","marker-size":"small","marker-symbol":"circle-stroked"}},{"type":"Feature","geometry":{"type":"Point","coordinates":[5.536154,51.770252]},"properties":{"cellid":"47c6fc5a0648c63b","marker-color":"#40B0F0","name":"Stop: Hannie Schaft Speeltuin [hannie schaft]","title":"Stop: Hannie Schaft Speeltuin [hannie schaft]","marker-size":"small","marker-symbol":"circle-stroked"}},{"type":"Feature","geometry":{"type":"Point","coordinates":[5.534357,51.7504]},"properties":{"cellid":"47c6fce5bc5a69e3","marker-color":"#40B0F0","name":"Stop: Hazenakker Soccerfield [hazenakker]","title":"Stop: Hazenakker Soccerfield [hazenakker]","marker-size":"small","marker-symbol":"circle-stroked"}},{"type":"Feature","geometry":{"type":"Point","coordinates":[5.52305,51.769053]},"properties":{"cellid":"47c6fc5e1fe8e3ff","marker-color":"#40B0F0","name":"Stop: Head [grote kerk]","title":"Stop: Head [grote kerk]","marker-size":"small","marker-symbol":"circle-stroked"}},{"type":"Feature","geometry":{"type":"Point","coordinates":[5.526439,51.763161]},"properties":{"cellid":"47c6fcf5b94875ef","marker-color":"#40B0F0","name":"Stop: Herdenkingsstenen","title":"Stop: Herdenkingsstenen","marker-size":"small","marker-symbol":"circle-stroked"}},{"type":"Feature","geometry":{"type":"Point","coordinates":[5.523884,51.764146]},"properties":{"cellid":"47c6fcf56901e8ff","marker-color":"#40B0F0","name":"Stop: Het Denkproces [denkproces]","title":"Stop: Het Denkproces [denkproces]","marker-size":"small","marker-symbol":"circle-stroked"}},{"type":"Feature","geometry":{"type":"Point","coordinates":[5.506294,51.756527]},"properties":{"cellid":"47c6fc85427e3931","marker-color":"#40B0F0","name":"Stop: High Five","title":"Stop: High Five","marker-size":"small","marker-symbol":"circle-stroked"}},{"type":"Feature","geometry":{"type":"Point","coordinates":[5.52947,51.769781]},"properties":{"cellid":"47c6fc5eaba497f3","marker-color":"#40B0F0","name":"Stop: Holy Ghost Church [holy ghost]","title":"Stop: Holy Ghost Church [holy ghost]","marker-size":"small","marker-symbol":"circle-stroked"}},{"type":"Feature","geometry":{"type":"Point","coordinates":[5.494454,51.768755]},"properties":{"cellid":"47c6fb805938a1eb","marker-color":"#40B0F0","name":"Stop: Honden Speelplaats","title":"Stop: Honden Speelplaats","marker-size":"small","marker-symbol":"circle-stroked"}},{"type":"Feature","geometry":{"type":"Point","coordinates":[5.54208,51.756257]},"properties":{"cellid":"47c6fcfc5f73625f","marker-color":"#40B0F0","name":"Stop: Hoogheuvel Playground [hoogheuvel]","title":"Stop: Hoogheuvel Playground [hoogheuvel]","marker-size":"small","marker-symbol":"circle-stroked"}},{"type":"Feature","geometry":{"type":"Point","coordinates":[5.522687,51.768804]},"properties":{"cellid":"47c6fc609efae0af","marker-color":"#40B0F0","name":"Stop: Horlogerie [grote kerk]","title":"Stop: Horlogerie [grote kerk]","marker-size":"small","marker-symbol":"circle-stroked"}},{"type":"Feature","geometry":{"type":"Point","coordinates":[5.534364,51.751434]},"properties":{"cellid":"47c6fce50b26f577","marker-color":"#40B0F0","name":"Stop: Ijzerwerk","title":"Stop: Ijzerwerk","marker-size":"small","marker-symbol":"circle-stroked"}},{"type":"Feature","geometry":{"type":"Point","coordinates":[5.529035,51.76502]},"properties":{"cellid":"47c6fc58ab901721","marker-color":"#40B0F0","name":"Stop: In Remembrance of World War Two Victims [rememberance]","title":"Stop: In Remembrance of World War Two Victims [rememberance]","marker-size":"small","marker-symbol":"circle-stroked"}},{"type":"Feature","geometry":{"type":"Point","coordinates":[5.501078,51.76081]},"properties":{"cellid":"47c6fc81563d8bbf","marker-color":"#40B0F0","name":"Stop: Jezus Aan Het Kruis [aan het kruis]","title":"Stop: Jezus Aan Het Kruis [aan het kruis]","marker-size":"small","marker-symbol":"circle-stroked"}},{"type":"Feature","geometry":{"type":"Point","coordinates":[5.527689,51.77473]},"properties":{"cellid":"47c6fc5cd7623435","marker-color":"#40B0F0","name":"Stop: Jumping","title":"Stop: Jumping","marker-size":"small","marker-symbol":"circle-stroked"}},{"type":"Feature","geometry":{"type":"Point","coordinates":[5.506187,51.763185]},"properties":{"cellid":"47c6fc87b2a993eb","marker-color":"#40B0F0","name":"Stop: Kabelbaan","title":"Stop: Kabelbaan","marker-size":"small","marker-symbol":"circle-stroked"}},{"type":"Feature","geometry":{"type":"Point","coordinates":[5.53385,51.77451]},"properties":{"cellid":"47c6fc5b286abb87","marker-color":"#40B0F0","name":"Stop: Kabelbaan","title":"Stop: Kabelbaan","marker-size":"small","marker-symbol":"circle-stroked"}},{"type":"Feature","geometry":{"type":"Point","coordinates":[5.526474,51.77204]},"properties":{"cellid":"47c6fc5db2205097","marker-color":"#40B0F0","name":"Stop: Kasteel Van Oss","title":"Stop: Kasteel Van Oss","marker-size":"small","marker-symbol":"circle-stroked"}},{"type":"Feature","geometry":{"type":"Point","coordinates":[5.505474,51.765021]},"properties":{"cellid":"47c6fc877702fa09","marker-color":"#40B0F0","name":"Stop: Kids Playground [safier]","title":"Stop: Kids Playground [safier]","marker-size":"small","marker-symbol":"circle-stroked"}},{"type":"Feature","geometry":{"type":"Point","coordinates":[5.538055,51.759881]},"properties":{"cellid":"47c6fcf9712d9e17","marker-color":"#40B0F0","name":"Stop: Kids Playground Zuiderpark [zuiderpark; trompstraat]","title":"Stop: Kids Playground Zuiderpark [zuiderpark; trompstraat]","marker-size":"small","marker-symbol":"circle-stroked"}},{"type":"Feature","geometry":{"type":"Point","coordinates":[5.523219,51.762461]},"properties":{"cellid":"47c6fcf52040a6db","marker-color":"#40B0F0","name":"Stop: Kiss (Maaslandcollege) [maaslandcollege]","title":"Stop: Kiss (Maaslandcollege) [maaslandcollege]","marker-size":"small","marker-symbol":"circle-stroked"}},{"type":"Feature","geometry":{"type":"Point","coordinates":[5.544117,51.772421]},"properties":{"cellid":"47c6fc522e4f4113","marker-color":"#40B0F0","name":"Stop: Klimrek Johannes Post [johannes post]","title":"Stop: Klimrek Johannes Post [johannes post]","marker-size":"small","marker-symbol":"circle-stroked"}},{"type":"Feature","geometry":{"type":"Point","coordinates":[5.525108,51.765002]},"properties":{"cellid":"47c6fc5f80c821b7","marker-color":"#40B0F0","name":"Stop: Klokkenspel","title":"Stop: Klokkenspel","marker-size":"small","marker-symbol":"circle-stroked"}},{"type":"Feature","geometry":{"type":"Point","coordinates":[5.532031,51.760404]},"properties":{"cellid":"47c6fcf73cc5bac9","marker-color":"#40B0F0","name":"Stop: Klokkentoren Karmelieten 1890-1990 [klokkentoren karmelieten; karmelieten; klokkentoren]","title":"Stop: Klokkentoren Karmelieten 1890-1990 [klokkentoren karmelieten; karmelieten; klokkentoren]","marker-size":"small","marker-symbol":"circle-stroked"}},{"type":"Feature","geometry":{"type":"Point","coordinates":[5.507684,51.758079]},"properties":{"cellid":"47c6fc8f7e1a88a7","marker-color":"#40B0F0","name":"Stop: Knooppunt 28","title":"Stop: Knooppunt 28","marker-size":"small","marker-symbol":"circle-stroked"}},{"type":"Feature","geometry":{"type":"Point","coordinates":[5.515659,51.775802]},"properties":{"cellid":"47c6fc658981526f","marker-color":"#40B0F0","name":"Stop: Kroonprins","title":"Stop: Kroonprins","marker-size":"small","marker-symbol":"circle-stroked"}},{"type":"Feature","geometry":{"type":"Point","coordinates":[5.530132,51.771881]},"properties":{"cellid":"47c6fc5c77e06b19","marker-color":"#40B0F0","name":"Stop: Kruip Toestel Mini Mensjes [kruip toestel; mini mensjes]","title":"Stop: Kruip Toestel Mini Mensjes [kruip toestel; mini mensjes]","marker-size":"small","marker-symbol":"circle-stroked"}},{"type":"Feature","geometry":{"type":"Point","coordinates":[5.527876,51.778306]},"properties":{"cellid":"47c6fc42546524c1","marker-color":"#40B0F0","name":"Stop: Logo Osse Hockeyclub [osse hockeyclub; hockeyclub; de osse tennisclub; osse tennisclub; tennisclub]","title":"Stop: Logo Osse Hockeyclub [osse hockeyclub; hockeyclub; de osse tennisclub; osse tennisclub; tennisclub]","marker-size":"small","marker-symbol":"circle-stroked"}},{"type":"Feature","geometry":{"type":"Point","coordinates":[5.535825,51.767271]},"properties":{"cellid":"47c6fc577e263725","marker-color":"#40B0F0","name":"Stop: Louis de Bourbon [louis; bourbon]","title":"Stop: Louis de Bourbon [louis; bourbon]","marker-size":"small","marker-symbol":"circle-stroked"}},{"type":"Feature","geometry":{"type":"Point","coordinates":[5.521142,51.766223]},"properties":{"cellid":"47c6fc60147aa44f","marker-color":"#40B0F0","name":"Stop: Man with Bag","title":"Stop: Man with Bag","marker-size":"small","marker-symbol":"circle-stroked"}},{"type":"Feature","geometry":{"type":"Point","coordinates":[5.528454,51.764883]},"properties":{"cellid":"47c6fc5f55b9db65","marker-color":"#40B0F0","name":"Stop: Medoc","title":"Stop: Medoc","marker-size":"small","marker-symbol":"circle-stroked"}},{"type":"Feature","geometry":{"type":"Point","coordinates":[5.531544,51.760598]},"properties":{"cellid":"47c6fcf721efda3b","marker-color":"#40B0F0","name":"Stop: Meisjesschool","title":"Stop: Meisjesschool","marker-size":"small","marker-symbol":"circle-stroked"}},{"type":"Feature","geometry":{"type":"Point","coordinates":[5.509905,51.781088]},"properties":{"cellid":"47c6fc718f18de73","marker-color":"#40B0F0","name":"Stop: Mettegeupel Natuurbord [mettegeupel]","title":"Stop: Mettegeupel Natuurbord [mettegeupel]","marker-size":"small","marker-symbol":"circle-stroked"}},{"type":"Feature","geometry":{"type":"Point","coordinates":[5.50572,51.763301]},"properties":{"cellid":"47c6fc87ab6e6a9d","marker-color":"#40B0F0","name":"Stop: Mini Voetbalveld","title":"Stop: Mini Voetbalveld","marker-size":"small","marker-symbol":"circle-stroked"}},{"type":"Feature","geometry":{"type":"Point","coordinates":[5.520132,51.752131]},"properties":{"cellid":"47c6fced296d5eb5","marker-color":"#40B0F0","name":"Stop: Mini Voetbalveld van Anrooijstraat [van anrooijstraat; anrooijstraat]","title":"Stop: Mini Voetbalveld van Anrooijstraat [van anrooijstraat; anrooijstraat]","marker-size":"small","marker-symbol":"circle-stroked"}},{"type":"Feature","geometry":{"type":"Point","coordinates":[5.534292,51.768954]},"properties":{"cellid":"47c6fc5992fff80d","marker-color":"#40B0F0","name":"Stop: MiniVoetbalveld Duiven [duiven]","title":"Stop: MiniVoetbalveld Duiven [duiven]","marker-size":"small","marker-symbol":"circle-stroked"}},{"type":"Feature","geometry":{"type":"Point","coordinates":[5.549463,51.778882]},"properties":{"cellid":"47c6fc4c97a737b9","marker-color":"#40B0F0","name":"Stop: Modern Art [kanaalstraat]","title":"Stop: Modern Art [kanaalstraat]","marker-size":"small","marker-symbol":"circle-stroked"}},{"type":"Feature","geometry":{"type":"Point","coordinates":[5.526023,51.766776]},"properties":{"cellid":"47c6fc5f085fd14f","marker-color":"#40B0F0","name":"Stop: Moeder Mariabeeld [moeder maria]","title":"Stop: Moeder Mariabeeld [moeder maria]","marker-size":"small","marker-symbol":"circle-stroked"}},{"type":"Feature","geometry":{"type":"Point","coordinates":[5.529957,51.765872]},"properties":{"cellid":"47c6fc58b8568ed5","marker-color":"#40B0F0","name":"Stop: Monumental Building","title":"Stop: Monumental Building","marker-size":"small","marker-symbol":"circle-stroked"}},{"type":"Feature","geometry":{"type":"Point","coordinates":[5.497161,51.748907]},"properties":{"cellid":"47c6fc9eec83342f","marker-color":"#40B0F0","name":"Stop: Mozaiek 't Woud [t woud]","title":"Stop: Mozaiek 't Woud [t woud]","marker-size":"small","marker-symbol":"circle-stroked"}},{"type":"Feature","geometry":{"type":"Point","coordinates":[5.514039,51.772951]},"properties":{"cellid":"47c6fc64565cdb39","marker-color":"#40B0F0","name":"Stop: Mozaiek Bank [bank]","title":"Stop: Mozaiek Bank [bank]","marker-size":"small","marker-symbol":"circle-stroked"}},{"type":"Feature","geometry":{"type":"Point","coordinates":[5.524573,51.767759]},"properties":{"cellid":"47c6fc5e4a5571ff","marker-color":"#40B0F0","name":"Stop: Mozaiek Houtstraat [houtstraat]","title":"Stop: Mozaiek Houtstraat [houtstraat]","marker-size":"small","marker-symbol":"circle-stroked"}},{"type":"Feature","geometry":{"type":"Point","coordinates":[5.497161,51.748907]},"properties":{"cellid":"47c6fc9eec83342f","marker-color":"#40B0F0","name":"Stop: Mozaïek 't Woud [t woud; mozaiek t woud]","title":"Stop: Mozaïek 't Woud [t woud; mozaiek t woud]","marker-size":"small","marker-symbol":"circle-stroked"}},{"type":"Feature","geometry":{"type":"Point","coordinates":[5.493146,51.765678]},"properties":{"cellid":"47c6fb7f9b42b5f5","marker-color":"#40B0F0","name":"Stop: Mozaïek Clown [mozaiek clown]","title":"Stop: Mozaïek Clown [mozaiek clown]","marker-size":"small","marker-symbol":"circle-stroked"}},{"type":"Feature","geometry":{"type":"Point","coordinates":[5.524573,51.767759]},"properties":{"cellid":"47c6fc5e4a5571ff","marker-color":"#40B0F0","name":"Stop: Mozaïek Houtstraat [mozaiek houtstraat; houtstraat]","title":"Stop: Mozaïek Houtstraat [mozaiek houtstraat; houtstraat]","marker-size":"small","marker-symbol":"circle-stroked"}},{"type":"Feature","geometry":{"type":"Point","coordinates":[5.506466,51.753863]},"properties":{"cellid":"47c6fc9a9f5c0985","marker-color":"#40B0F0","name":"Stop: Nadenkend Mannetje [nadenkend]","title":"Stop: Nadenkend Mannetje [nadenkend]","marker-size":"small","marker-symbol":"circle-stroked"}},{"type":"Feature","geometry":{"type":"Point","coordinates":[5.518762,51.768266]},"properties":{"cellid":"47c6fc6105f27d59","marker-color":"#40B0F0","name":"Stop: Nieuw Leven 1895 [nieuw leven]","title":"Stop: Nieuw Leven 1895 [nieuw leven]","marker-size":"small","marker-symbol":"circle-stroked"}},{"type":"Feature","geometry":{"type":"Point","coordinates":[5.530366,51.765147]},"properties":{"cellid":"47c6fc58a261549f","marker-color":"#40B0F0","name":"Stop: NS-plaquette [ns]","title":"Stop: NS-plaquette [ns]","marker-size":"small","marker-symbol":"circle-stroked"}},{"type":"Feature","geometry":{"type":"Point","coordinates":[5.499759,51.779013]},"properties":{"cellid":"47c6fc77cc1e34d5","marker-color":"#40B0F0","name":"Stop: Ontvangende kunstpop [kunstpop]","title":"Stop: Ontvangende kunstpop [kunstpop]","marker-size":"small","marker-symbol":"circle-stroked"}},{"type":"Feature","geometry":{"type":"Point","coordinates":[5.518108,51.751451]},"properties":{"cellid":"47c6fc93231708bd","marker-color":"#40B0F0","name":"Stop: Ovaal Voetbalveld","title":"Stop: Ovaal Voetbalveld","marker-size":"small","marker-symbol":"circle-stroked"}},{"type":"Feature","geometry":{"type":"Point","coordinates":[5.534708,51.768831]},"properties":{"cellid":"47c6fc59ec66af8b","marker-color":"#40B0F0","name":"Stop: Patrijs Speeltuin [patrijs]","title":"Stop: Patrijs Speeltuin [patrijs]","marker-size":"small","marker-symbol":"circle-stroked"}},{"type":"Feature","geometry":{"type":"Point","coordinates":[5.523236,51.761838]},"properties":{"cellid":"47c6fcf4e7845e79","marker-color":"#40B0F0","name":"Stop: Pauskerk","title":"Stop: Pauskerk","marker-size":"small","marker-symbol":"circle-stroked"}},{"type":"Feature","geometry":{"type":"Point","coordinates":[5.510414,51.76732]},"properties":{"cellid":"47c6fc62c5c3c1b7","marker-color":"#40B0F0","name":"Stop: Playground [vierhoeksingel]","title":"Stop: Playground [vierhoeksingel]","marker-size":"small","marker-symbol":"circle-stroked"}},{"type":"Feature","geometry":{"type":"Point","coordinates":[5.50252,51.772442]},"properties":{"cellid":"47c6fc7941a65a51","marker-color":"#40B0F0","name":"Stop: Playground [westvelderlaan]","title":"Stop: Playground [westvelderlaan]","marker-size":"small","marker-symbol":"circle-stroked"}},{"type":"Feature","geometry":{"type":"Point","coordinates":[5.52172,51.775379]},"properties":{"cellid":"47c6fc67d7453821","marker-color":"#40B0F0","name":"Stop: Playground [almstein]","title":"Stop: Playground [almstein]","marker-size":"small","marker-symbol":"circle-stroked"}},{"type":"Feature","geometry":{"type":"Point","coordinates":[5.50416,51.775389]},"properties":{"cellid":"47c6fc79f469799f","marker-color":"#40B0F0","name":"Stop: Playground [duiker]","title":"Stop: Playground [duiker]","marker-size":"small","marker-symbol":"circle-stroked"}},{"type":"Feature","geometry":{"type":"Point","coordinates":[5.539153,51.755884]},"properties":{"cellid":"47c6fcfb70ef4e83","marker-color":"#40B0F0","name":"Stop: Playground Beukenstraat [beukenstraat]","title":"Stop: Playground Beukenstraat [beukenstraat]","marker-size":"small","marker-symbol":"circle-stroked"}},{"type":"Feature","geometry":{"type":"Point","coordinates":[5.514469,51.778484]},"properties":{"cellid":"47c6fc6fac601dcf","marker-color":"#40B0F0","name":"Stop: Playground Edelenburg [edelenburg]","title":"Stop: Playground Edelenburg [edelenburg]","marker-size":"small","marker-symbol":"circle-stroked"}},{"type":"Feature","geometry":{"type":"Point","coordinates":[5.539423,51.755536]},"properties":{"cellid":"47c6fcfb651c464d","marker-color":"#40B0F0","name":"Stop: Playground Iepenstraat [iepenstraat]","title":"Stop: Playground Iepenstraat [iepenstraat]","marker-size":"small","marker-symbol":"circle-stroked"}},{"type":"Feature","geometry":{"type":"Point","coordinates":[5.505547,51.777674]},"properties":{"cellid":"47c6fc70b634e755","marker-color":"#40B0F0","name":"Stop: Playground Polderkade [polerkade]","title":"Stop: Playground Polderkade [polerkade]","marker-size":"small","marker-symbol":"circle-stroked"}},{"type":"Feature","geometry":{"type":"Point","coordinates":[5.524148,51.759168]},"properties":{"cellid":"47c6fcf37857b27d","marker-color":"#40B0F0","name":"Stop: Playground Tulpstraat [tulpstraat]","title":"Stop: Playground Tulpstraat [tulpstraat]","marker-size":"small","marker-symbol":"circle-stroked"}},{"type":"Feature","geometry":{"type":"Point","coordinates":[5.504492,51.77626]},"properties":{"cellid":"47c6fc79ff1ac31f","marker-color":"#40B0F0","name":"Stop: Playground Zinker [zinker]","title":"Stop: Playground Zinker [zinker]","marker-size":"small","marker-symbol":"circle-stroked"}},{"type":"Feature","geometry":{"type":"Point","coordinates":[5.534665,51.773436]},"properties":{"cellid":"47c6fc5ae8b7c1d9","marker-color":"#40B0F0","name":"Stop: Plop Voetbalveld [plop]","title":"Stop: Plop Voetbalveld [plop]","marker-size":"small","marker-symbol":"circle-stroked"}},{"type":"Feature","geometry":{"type":"Point","coordinates":[5.51361,51.773928]},"properties":{"cellid":"47c6fc6505cfd917","marker-color":"#40B0F0","name":"Stop: Plophut Met Bank [plophut]","title":"Stop: Plophut Met Bank [plophut]","marker-size":"small","marker-symbol":"circle-stroked"}},{"type":"Feature","geometry":{"type":"Point","coordinates":[5.550956,51.77026]},"properties":{"cellid":"47c6fdacbf6ec6bd","marker-color":"#40B0F0","name":"Stop: Prijsschieten","title":"Stop: Prijsschieten","marker-size":"small","marker-symbol":"circle-stroked"}},{"type":"Feature","geometry":{"type":"Point","coordinates":[5.521839,51.761188]},"properties":{"cellid":"47c6fcf4c98ab0ef","marker-color":"#40B0F0","name":"Stop: Regenboog","title":"Stop: Regenboog","marker-size":"small","marker-symbol":"circle-stroked"}},{"type":"Feature","geometry":{"type":"Point","coordinates":[5.512959,51.779098]},"properties":{"cellid":"47c6fc6e3143403b","marker-color":"#40B0F0","name":"Stop: Ringen","title":"Stop: Ringen","marker-size":"small","marker-symbol":"circle-stroked"}},{"type":"Feature","geometry":{"type":"Point","coordinates":[5.502428,51.746877]},"properties":{"cellid":"47c6fc98576a9191","marker-color":"#40B0F0","name":"Stop: Roedel Speeltuin [roedel; roedelhof]","title":"Stop: Roedel Speeltuin [roedel; roedelhof]","marker-size":"small","marker-symbol":"circle-stroked"}},{"type":"Feature","geometry":{"type":"Point","coordinates":[5.52822,51.766279]},"properties":{"cellid":"47c6fc5f377ea319","marker-color":"#40B0F0","name":"Stop: Rollout Art Bench [rollout]","title":"Stop: Rollout Art Bench [rollout]","marker-size":"small","marker-symbol":"circle-stroked"}},{"type":"Feature","geometry":{"type":"Point","coordinates":[5.514794,51.770868]},"properties":{"cellid":"47c6fc6474351b05","marker-color":"#40B0F0","name":"Stop: Roundabout Art","title":"Stop: Roundabout Art","marker-size":"small","marker-symbol":"circle-stroked"}},{"type":"Feature","geometry":{"type":"Point","coordinates":[5.524351,51.777393]},"properties":{"cellid":"47c6fc68265ce2f7","marker-color":"#40B0F0","name":"Stop: Rusheuvel Sportpark [rusheuvel]","title":"Stop: Rusheuvel Sportpark [rusheuvel]","marker-size":"small","marker-symbol":"circle-stroked"}},{"type":"Feature","geometry":{"type":"Point","coordinates":[5.507403,51.754016]},"properties":{"cellid":"47c6fc900c57bcff","marker-color":"#40B0F0","name":"Stop: Schommele Schommele Schommele [schommele; schommele schommele]","title":"Stop: Schommele Schommele Schommele [schommele; schommele schommele]","marker-size":"small","marker-symbol":"circle-stroked"}},{"type":"Feature","geometry":{"type":"Point","coordinates":[5.491934,51.766578]},"properties":{"cellid":"47c6fb81d838aa77","marker-color":"#40B0F0","name":"Stop: Schutskooi Ussen [schutskooi]","title":"Stop: Schutskooi Ussen [schutskooi]","marker-size":"small","marker-symbol":"circle-stroked"}},{"type":"Feature","geometry":{"type":"Point","coordinates":[5.521869,51.777682]},"properties":{"cellid":"47c6fc6850afe2bb","marker-color":"#40B0F0","name":"Stop: Skate Baan Graffiti [skatebaan graffity]","title":"Stop: Skate Baan Graffiti [skatebaan graffity]","marker-size":"small","marker-symbol":"circle-stroked"}},{"type":"Feature","geometry":{"type":"Point","coordinates":[5.533164,51.774454]},"properties":{"cellid":"47c6fc5b2557af33","marker-color":"#40B0F0","name":"Stop: Skatebaan [skate baan]","title":"Stop: Skatebaan [skate baan]","marker-size":"small","marker-symbol":"circle-stroked"}},{"type":"Feature","geometry":{"type":"Point","coordinates":[5.528572,51.769213]},"properties":{"cellid":"47c6fc5ebbaadd3f","marker-color":"#40B0F0","name":"Stop: Sneeuwpop","title":"Stop: Sneeuwpop","marker-size":"small","marker-symbol":"circle-stroked"}},{"type":"Feature","geometry":{"type":"Point","coordinates":[5.504848,51.757495]},"properties":{"cellid":"47c6fc8505b34fd1","marker-color":"#40B0F0","name":"Stop: Soccerfield Treubstraat 2 [treubstraat]","title":"Stop: Soccerfield Treubstraat 2 [treubstraat]","marker-size":"small","marker-symbol":"circle-stroked"}},{"type":"Feature","geometry":{"type":"Point","coordinates":[5.549392,51.768143]},"properties":{"cellid":"47c6fdab4c613a73","marker-color":"#40B0F0","name":"Stop: Speeltuin Adelaar [adelaar]","title":"Stop: Speeltuin Adelaar [adelaar]","marker-size":"small","marker-symbol":"circle-stroked"}},{"type":"Feature","geometry":{"type":"Point","coordinates":[5.498989,51.754974]},"properties":{"cellid":"47c6fc9cb79fba75","marker-color":"#40B0F0","name":"Stop: Speeltuin Albarda [albarda]","title":"Stop: Speeltuin Albarda [albarda]","marker-size":"small","marker-symbol":"circle-stroked"}},{"type":"Feature","geometry":{"type":"Point","coordinates":[5.500579,51.773681]},"properties":{"cellid":"47c6fc78fe9d9be5","marker-color":"#40B0F0","name":"Stop: Speeltuin Anker [anker]","title":"Stop: Speeltuin Anker [anker]","marker-size":"small","marker-symbol":"circle-stroked"}},{"type":"Feature","geometry":{"type":"Point","coordinates":[5.519398,51.759032]},"properties":{"cellid":"47c6fc8cbd8535f9","marker-color":"#40B0F0","name":"Stop: Speeltuin Basket [basket]","title":"Stop: Speeltuin Basket [basket]","marker-size":"small","marker-symbol":"circle-stroked"}},{"type":"Feature","geometry":{"type":"Point","coordinates":[5.507113,51.77909]},"properties":{"cellid":"47c6fc711e48f187","marker-color":"#40B0F0","name":"Stop: Speeltuin Buitenhof [buitenhof]","title":"Stop: Speeltuin Buitenhof [buitenhof]","marker-size":"small","marker-symbol":"circle-stroked"}},{"type":"Feature","geometry":{"type":"Point","coordinates":[5.499698,51.748937]},"properties":{"cellid":"47c6fc9949fb681f","marker-color":"#40B0F0","name":"Stop: Speeltuin Cluster [cluster]","title":"Stop: Speeltuin Cluster [cluster]","marker-size":"small","marker-symbol":"circle-stroked"}},{"type":"Feature","geometry":{"type":"Point","coordinates":[5.542867,51.767452]},"properties":{"cellid":"47c6fc5425e15f9b","marker-color":"#40B0F0","name":"Stop: Speeltuin De Koekkoek [koekoek; koekkoek]","title":"Stop: Speeltuin De Koekkoek [koekoek; koekkoek]","marker-size":"small","marker-symbol":"circle-stroked"}},{"type":"Feature","geometry":{"type":"Point","coordinates":[5.531007,51.766846]},"properties":{"cellid":"47c6fc58e6e3bc7b","marker-color":"#40B0F0","name":"Stop: Speeltuin Gripper [gripper]","title":"Stop: Speeltuin Gripper [gripper]","marker-size":"small","marker-symbol":"circle-stroked"}},{"type":"Feature","geometry":{"type":"Point","coordinates":[5.509293,51.776579]},"properties":{"cellid":"47c6fc7073f80d29","marker-color":"#40B0F0","name":"Stop: Speeltuin Groenendaal [groenendaal]","title":"Stop: Speeltuin Groenendaal [groenendaal]","marker-size":"small","marker-symbol":"circle-stroked"}},{"type":"Feature","geometry":{"type":"Point","coordinates":[5.510405,51.782518]},"properties":{"cellid":"47c6fc72395211a5","marker-color":"#40B0F0","name":"Stop: Speeltuin Harnas [harnas]","title":"Stop: Speeltuin Harnas [harnas]","marker-size":"small","marker-symbol":"circle-stroked"}},{"type":"Feature","geometry":{"type":"Point","coordinates":[5.495284,51.758215]},"properties":{"cellid":"47c6fc8287d32d8d","marker-color":"#40B0F0","name":"Stop: Speeltuin Heihoek [heihoek]","title":"Stop: Speeltuin Heihoek [heihoek]","marker-size":"small","marker-symbol":"circle-stroked"}},{"type":"Feature","geometry":{"type":"Point","coordinates":[5.53906,51.772068]},"properties":{"cellid":"47c6fc50f7ae7ae1","marker-color":"#40B0F0","name":"Stop: Speeltuin Johan V Bijne [johan v bijne]","title":"Stop: Speeltuin Johan V Bijne [johan v bijne]","marker-size":"small","marker-symbol":"circle-stroked"}},{"type":"Feature","geometry":{"type":"Point","coordinates":[5.494453,51.77092]},"properties":{"cellid":"47c6fb80dabe8b11","marker-color":"#40B0F0","name":"Stop: Speeltuin Klaverweide [klaverweide]","title":"Stop: Speeltuin Klaverweide [klaverweide]","marker-size":"small","marker-symbol":"circle-stroked"}},{"type":"Feature","geometry":{"type":"Point","coordinates":[5.527487,51.774519]},"properties":{"cellid":"47c6fc5cd8ed992f","marker-color":"#40B0F0","name":"Stop: Speeltuin Kuipers Rietberg [kuiper rietberg]","title":"Stop: Speeltuin Kuipers Rietberg [kuiper rietberg]","marker-size":"small","marker-symbol":"circle-stroked"}},{"type":"Feature","geometry":{"type":"Point","coordinates":[5.503317,51.771561]},"properties":{"cellid":"47c6fc7954001127","marker-color":"#40B0F0","name":"Stop: Speeltuin Lichtmot [lichtmot]","title":"Stop: Speeltuin Lichtmot [lichtmot]","marker-size":"small","marker-symbol":"circle-stroked"}},{"type":"Feature","geometry":{"type":"Point","coordinates":[5.516537,51.763542]},"properties":{"cellid":"47c6fc8a3bd7fa23","marker-color":"#40B0F0","name":"Stop: Speeltuin Pastoor Bloemstraat [pastoor bloemstraat; bloemstraat]","title":"Stop: Speeltuin Pastoor Bloemstraat [pastoor bloemstraat; bloemstraat]","marker-size":"small","marker-symbol":"circle-stroked"}},{"type":"Feature","geometry":{"type":"Point","coordinates":[5.500836,51.770787]},"properties":{"cellid":"47c6fc7ed0edc121","marker-color":"#40B0F0","name":"Stop: Speeltuin Perzikhof [perzikhof]","title":"Stop: Speeltuin Perzikhof [perzikhof]","marker-size":"small","marker-symbol":"circle-stroked"}},{"type":"Feature","geometry":{"type":"Point","coordinates":[5.534124,51.773354]},"properties":{"cellid":"47c6fc5ae3f456dd","marker-color":"#40B0F0","name":"Stop: Speeltuin Plop [plop]","title":"Stop: Speeltuin Plop [plop]","marker-size":"small","marker-symbol":"circle-stroked"}},{"type":"Feature","geometry":{"type":"Point","coordinates":[5.531099,51.767759]},"properties":{"cellid":"47c6fc5918f6b461","marker-color":"#40B0F0","name":"Stop: Speeltuin Schering [schering]","title":"Stop: Speeltuin Schering [schering]","marker-size":"small","marker-symbol":"circle-stroked"}},{"type":"Feature","geometry":{"type":"Point","coordinates":[5.52841,51.761124]},"properties":{"cellid":"47c6fcf699555423","marker-color":"#40B0F0","name":"Stop: Speeltuin Seringenhof [seringenhof]","title":"Stop: Speeltuin Seringenhof [seringenhof]","marker-size":"small","marker-symbol":"circle-stroked"}},{"type":"Feature","geometry":{"type":"Point","coordinates":[5.548327,51.767285]},"properties":{"cellid":"47c6fc54cfa88e4f","marker-color":"#40B0F0","name":"Stop: Speeltuin Sperwerstraat [sperwerstraat]","title":"Stop: Speeltuin Sperwerstraat [sperwerstraat]","marker-size":"small","marker-symbol":"circle-stroked"}},{"type":"Feature","geometry":{"type":"Point","coordinates":[5.494023,51.763227]},"properties":{"cellid":"47c6fb7e37ab6265","marker-color":"#40B0F0","name":"Stop: Speeltuin Tinnegieter [tinnegieter]","title":"Stop: Speeltuin Tinnegieter [tinnegieter]","marker-size":"small","marker-symbol":"circle-stroked"}},{"type":"Feature","geometry":{"type":"Point","coordinates":[5.489799,51.76537]},"properties":{"cellid":"47c6fb7f49906ae1","marker-color":"#40B0F0","name":"Stop: Speeltuin Ussen [ussen]","title":"Stop: Speeltuin Ussen [ussen]","marker-size":"small","marker-symbol":"circle-stroked"}},{"type":"Feature","geometry":{"type":"Point","coordinates":[5.523169,51.750515]},"properties":{"cellid":"47c6fcec5d9a3795","marker-color":"#40B0F0","name":"Stop: Speeltuin Wagenaarstraat [wagenaarstraat]","title":"Stop: Speeltuin Wagenaarstraat [wagenaarstraat]","marker-size":"small","marker-symbol":"circle-stroked"}},{"type":"Feature","geometry":{"type":"Point","coordinates":[5.52578,51.762992]},"properties":{"cellid":"47c6fcf5a514e5bd","marker-color":"#40B0F0","name":"Stop: Speeltuin Zonnebloem [zonnebloem]","title":"Stop: Speeltuin Zonnebloem [zonnebloem]","marker-size":"small","marker-symbol":"circle-stroked"}},{"type":"Feature","geometry":{"type":"Point","coordinates":[5.536842,51.78022]},"properties":{"cellid":"47c6fc45e018bead","marker-color":"#40B0F0","name":"Stop: Spelen Met Een Bal [spelen]","title":"Stop: Spelen Met Een Bal [spelen]","marker-size":"small","marker-symbol":"circle-stroked"}},{"type":"Feature","geometry":{"type":"Point","coordinates":[5.512656,51.766437]},"properties":{"cellid":"47c6fc626211692d","marker-color":"#40B0F0","name":"Stop: Spieakker Speeltuin [spieakker]","title":"Stop: Spieakker Speeltuin [spieakker]","marker-size":"small","marker-symbol":"circle-stroked"}},{"type":"Feature","geometry":{"type":"Point","coordinates":[5.50851,51.75454]},"properties":{"cellid":"47c6fc90186cc111","marker-color":"#40B0F0","name":"Stop: Standing Figure [standing]","title":"Stop: Standing Figure [standing]","marker-size":"small","marker-symbol":"circle-stroked"}},{"type":"Feature","geometry":{"type":"Point","coordinates":[5.506861,51.758276]},"properties":{"cellid":"47c6fc8584cc92f7","marker-color":"#40B0F0","name":"Stop: Station Oss West [oss west]","title":"Stop: Station Oss West [oss west]","marker-size":"small","marker-symbol":"circle-stroked"}},{"type":"Feature","geometry":{"type":"Point","coordinates":[5.52694,51.769633]},"properties":{"cellid":"47c6fc5e844ca31f","marker-color":"#40B0F0","name":"Stop: Stolpersteine","title":"Stop: Stolpersteine","marker-size":"small","marker-symbol":"circle-stroked"}},{"type":"Feature","geometry":{"type":"Point","coordinates":[5.534716,51.767676]},"properties":{"cellid":"47c6fc59cf39a2b3","marker-color":"#40B0F0","name":"Stop: Struikel Doelen [doelen]","title":"Stop: Struikel Doelen [doelen]","marker-size":"small","marker-symbol":"circle-stroked"}},{"type":"Feature","geometry":{"type":"Point","coordinates":[5.525427,51.765955]},"properties":{"cellid":"47c6fc5f9e8ebd45","marker-color":"#40B0F0","name":"Stop: Struikelsteentjes [boterstraat]","title":"Stop: Struikelsteentjes [boterstraat]","marker-size":"small","marker-symbol":"circle-stroked"}},{"type":"Feature","geometry":{"type":"Point","coordinates":[5.524745,51.760075]},"properties":{"cellid":"47c6fcf47c48c7d1","marker-color":"#40B0F0","name":"Stop: Struikelsten [struikelsten; struikelsteen]","title":"Stop: Struikelsten [struikelsten; struikelsteen]","marker-size":"small","marker-symbol":"circle-stroked"}},{"type":"Feature","geometry":{"type":"Point","coordinates":[5.532465,51.76647]},"properties":{"cellid":"47c6fc5858406b37","marker-color":"#40B0F0","name":"Stop: Struikelstenen","title":"Stop: Struikelstenen","marker-size":"small","marker-symbol":"circle-stroked"}},{"type":"Feature","geometry":{"type":"Point","coordinates":[5.527512,51.755756]},"properties":{"cellid":"47c6fcf18c4e3ed5","marker-color":"#40B0F0","name":"Stop: SV TOP [top oss]","title":"Stop: SV TOP [top oss]","marker-size":"small","marker-symbol":"circle-stroked"}},{"type":"Feature","geometry":{"type":"Point","coordinates":[5.501125,51.77513]},"properties":{"cellid":"47c6fc784b2a554f","marker-color":"#40B0F0","name":"Stop: T Art [art]","title":"Stop: T Art [art]","marker-size":"small","marker-symbol":"circle-stroked"}},{"type":"Feature","geometry":{"type":"Point","coordinates":[5.544729,51.746842]},"properties":{"cellid":"47c6fce1e064a0d3","marker-color":"#40B0F0","name":"Stop: T Putje [putje]","title":"Stop: T Putje [putje]","marker-size":"small","marker-symbol":"circle-stroked"}},{"type":"Feature","geometry":{"type":"Point","coordinates":[5.498438,51.769197]},"properties":{"cellid":"47c6fc7f0c971f2f","marker-color":"#40B0F0","name":"Stop: Tennisbaan Ussen [tennisbaan]","title":"Stop: Tennisbaan Ussen [tennisbaan]","marker-size":"small","marker-symbol":"circle-stroked"}},{"type":"Feature","geometry":{"type":"Point","coordinates":[5.532506,51.767941]},"properties":{"cellid":"47c6fc590868d44f","marker-color":"#40B0F0","name":"Stop: The Peacock [peacock]","title":"Stop: The Peacock [peacock]","marker-size":"small","marker-symbol":"circle-stroked"}},{"type":"Feature","geometry":{"type":"Point","coordinates":[5.503661,51.751861]},"properties":{"cellid":"47c6fc9a4ef65a89","marker-color":"#40B0F0","name":"Stop: The Playground","title":"Stop: The Playground","marker-size":"small","marker-symbol":"circle-stroked"}},{"type":"Feature","geometry":{"type":"Point","coordinates":[5.530231,51.762212]},"properties":{"cellid":"47c6fcf65ed718f5","marker-color":"#40B0F0","name":"Stop: Titus bij MSD [titus]","title":"Stop: Titus bij MSD [titus]","marker-size":"small","marker-symbol":"circle-stroked"}},{"type":"Feature","geometry":{"type":"Point","coordinates":[5.525773,51.766977]},"properties":{"cellid":"47c6fc5fa838c925","marker-color":"#40B0F0","name":"Stop: Titus Brandsma [brandsma]","title":"Stop: Titus Brandsma [brandsma]","marker-size":"small","marker-symbol":"circle-stroked"}},{"type":"Feature","geometry":{"type":"Point","coordinates":[5.490887,51.749765]},"properties":{"cellid":"47c6fb6193b91863","marker-color":"#40B0F0","name":"Stop: Triton Oss [triton]","title":"Stop: Triton Oss [triton]","marker-size":"small","marker-symbol":"circle-stroked"}},{"type":"Feature","geometry":{"type":"Point","coordinates":[5.502205,51.752278]},"properties":{"cellid":"47c6fc9ba5a8551b","marker-color":"#40B0F0","name":"Stop: Tussen Jou En Mij [tussen jou]","title":"Stop: Tussen Jou En Mij [tussen jou]","marker-size":"small","marker-symbol":"circle-stroked"}},{"type":"Feature","geometry":{"type":"Point","coordinates":[5.524207,51.768095]},"properties":{"cellid":"47c6fc5e36fdc8c5","marker-color":"#40B0F0","name":"Stop: Varken","title":"Stop: Varken","marker-size":"small","marker-symbol":"circle-stroked"}},{"type":"Feature","geometry":{"type":"Point","coordinates":[5.53603,51.748648]},"properties":{"cellid":"47c6fce4284dc2df","marker-color":"#40B0F0","name":"Stop: Vernieuwing","title":"Stop: Vernieuwing","marker-size":"small","marker-symbol":"circle-stroked"}},{"type":"Feature","geometry":{"type":"Point","coordinates":[5.530117,51.757169]},"properties":{"cellid":"47c6fcf1038c7fe9","marker-color":"#40B0F0","name":"Stop: Villa Katrien [katrien]","title":"Stop: Villa Katrien [katrien]","marker-size":"small","marker-symbol":"circle-stroked"}},{"type":"Feature","geometry":{"type":"Point","coordinates":[5.544209,51.772062]},"properties":{"cellid":"47c6fc52329be371","marker-color":"#40B0F0","name":"Stop: Voetbalveld Johannes Post [johannes post]","title":"Stop: Voetbalveld Johannes Post [johannes post]","marker-size":"small","marker-symbol":"circle-stroked"}},{"type":"Feature","geometry":{"type":"Point","coordinates":[5.503204,51.771043]},"properties":{"cellid":"47c6fc7eac788afd","marker-color":"#40B0F0","name":"Stop: Voetbalveld Koningspage [koningspage]","title":"Stop: Voetbalveld Koningspage [koningspage]","marker-size":"small","marker-symbol":"circle-stroked"}},{"type":"Feature","geometry":{"type":"Point","coordinates":[5.530102,51.754571]},"properties":{"cellid":"47c6fcf02ce6def7","marker-color":"#40B0F0","name":"Stop: Voetbalveld Mondriaan [mondriaan]","title":"Stop: Voetbalveld Mondriaan [mondriaan]","marker-size":"small","marker-symbol":"circle-stroked"}},{"type":"Feature","geometry":{"type":"Point","coordinates":[5.501004,51.775417]},"properties":{"cellid":"47c6fc7835097a15","marker-color":"#40B0F0","name":"Stop: Voetbalveld Parklaan [parklaan]","title":"Stop: Voetbalveld Parklaan [parklaan]","marker-size":"small","marker-symbol":"circle-stroked"}},{"type":"Feature","geometry":{"type":"Point","coordinates":[5.50398,51.768703]},"properties":{"cellid":"47c6fc7c2d7e02fd","marker-color":"#40B0F0","name":"Stop: Voetbalveld Ussenstraat [ussenstraat]","title":"Stop: Voetbalveld Ussenstraat [ussenstraat]","marker-size":"small","marker-symbol":"circle-stroked"}},{"type":"Feature","geometry":{"type":"Point","coordinates":[5.520032,51.764765]},"properties":{"cellid":"47c6fc8a9be5dee3","marker-color":"#40B0F0","name":"Stop: VolksUNIversiteit","title":"Stop: VolksUNIversiteit","marker-size":"small","marker-symbol":"circle-stroked"}},{"type":"Feature","geometry":{"type":"Point","coordinates":[5.536089,51.759321]},"properties":{"cellid":"47c6fcf98ba7ca31","marker-color":"#40B0F0","name":"Stop: Wall art Zuid [karel doormanstraat]","title":"Stop: Wall art Zuid [karel doormanstraat]","marker-size":"small","marker-symbol":"circle-stroked"}},{"type":"Feature","geometry":{"type":"Point","coordinates":[5.536704,51.75899]},"properties":{"cellid":"47c6fcfa286c84dd","marker-color":"#40B0F0","name":"Stop: Wall Art Zuid II","title":"Stop: Wall Art Zuid II","marker-size":"small","marker-symbol":"circle-stroked"}},{"type":"Feature","geometry":{"type":"Point","coordinates":[5.544786,51.747077]},"properties":{"cellid":"47c6fce1e19b1963","marker-color":"#40B0F0","name":"Stop: Wandelroute Putje [putje]","title":"Stop: Wandelroute Putje [putje]","marker-size":"small","marker-symbol":"circle-stroked"}},{"type":"Feature","geometry":{"type":"Point","coordinates":[5.532414,51.758077]},"properties":{"cellid":"47c6fcf0bf97163d","marker-color":"#40B0F0","name":"Stop: War Memorial Oss [war memorial]","title":"Stop: War Memorial Oss [war memorial]","marker-size":"small","marker-symbol":"circle-stroked"}},{"type":"Feature","geometry":{"type":"Point","coordinates":[5.524846,51.769409]},"properties":{"cellid":"47c6fc5e6d1c579b","marker-color":"#40B0F0","name":"Stop: Water Kunstlicht [kunstlicht]","title":"Stop: Water Kunstlicht [kunstlicht]","marker-size":"small","marker-symbol":"circle-stroked"}},{"type":"Feature","geometry":{"type":"Point","coordinates":[5.545496,51.762585]},"properties":{"cellid":"47c6fcffa2bcf11b","marker-color":"#40B0F0","name":"Stop: Waterpaddestoel","title":"Stop: Waterpaddestoel","marker-size":"small","marker-symbol":"circle-stroked"}},{"type":"Feature","geometry":{"type":"Point","coordinates":[5.512912,51.751366]},"properties":{"cellid":"47c6fc93d89ecd83","marker-color":"#40B0F0","name":"Stop: Welkom in de Dichtersbuurt [dichtetsbuurt; dichtersbuurt; welkom in de dichtersbuurt]","title":"Stop: Welkom in de Dichtersbuurt [dichtetsbuurt; dichtersbuurt; welkom in de dichtersbuurt]","marker-size":"small","marker-symbol":"circle-stroked"}},{"type":"Feature","geometry":{"type":"Point","coordinates":[5.531816,51.762754]},"properties":{"cellid":"47c6fcf7b2f88bf9","marker-color":"#40B0F0","name":"Stop: Welkom Op De Wereld [de wereld]","title":"Stop: Welkom Op De Wereld [de wereld]","marker-size":"small","marker-symbol":"circle-stroked"}},{"type":"Feature","geometry":{"type":"Point","coordinates":[5.507187,51.76535]},"properties":{"cellid":"47c6fc878c679dc1","marker-color":"#40B0F0","name":"Stop: Welkom Smaragd [smaragd]","title":"Stop: Welkom Smaragd [smaragd]","marker-size":"small","marker-symbol":"circle-stroked"}},{"type":"Feature","geometry":{"type":"Point","coordinates":[5.533088,51.763009]},"properties":{"cellid":"47c6fcf7bef76a6b","marker-color":"#40B0F0","name":"Stop: Wijsheid in de Geneeskunde [wijsheid; geneeskunde]","title":"Stop: Wijsheid in de Geneeskunde [wijsheid; geneeskunde]","marker-size":"small","marker-symbol":"circle-stroked"}},{"type":"Feature","geometry":{"type":"Point","coordinates":[5.521376,51.76909]},"properties":{"cellid":"47c6fc60bffbdc8d","marker-color":"#40B0F0","name":"Stop: Window Mural","title":"Stop: Window Mural","marker-size":"small","marker-symbol":"circle-stroked"}},{"type":"Feature","geometry":{"type":"Point","coordinates":[5.523188,51.768261]},"properties":{"cellid":"47c6fc5e28ba715d","marker-color":"#40B0F0","name":"Stop: Wooden Art Couch I [wooden art; couch 1; couch i]","title":"Stop: Wooden Art Couch I [wooden art; couch 1; couch i]","marker-size":"small","marker-symbol":"circle-stroked"}},{"type":"Feature","geometry":{"type":"Point","coordinates":[5.533245,51.759319]},"properties":{"cellid":"47c6fcf74d22cdd9","marker-color":"#40B0F0","name":"Stop: Zuidergebouw Oss [zuidergebouw]","title":"Stop: Zuidergebouw Oss [zuidergebouw]","marker-size":"small","marker-symbol":"circle-stroked"}},{"type":"Feature","geometry":{"type":"Point","coordinates":[5.52365,51.766118]},"properties":{"cellid":"47c6fc5febd65e99","marker-color":"#40B0F0","name":"Stop: Zuilensculptuur","title":"Stop: Zuilensculptuur","marker-size":"small","marker-symbol":"circle-stroked"}},{"type":"Feature","geometry":{"type":"Point","coordinates":[5.532855,51.777046]},"properties":{"cellid":"47c6fc44ed4835af","marker-color":"#40B0F0","name":"Stop: Zwervend Erf [zwervend]","title":"Stop: Zwervend Erf [zwervend]","marker-size":"small","marker-symbol":"circle-stroked"}},{"type":"Feature","geometry":{"type":"Point","coordinates":[5.5832,51.767311]},"properties":{"cellid":"47c6fd9c0a2a7c79","marker-color":"#40B0F0","name":"Stop: Animal [animal]","title":"Stop: Animal [animal]","marker-size":"small","marker-symbol":"circle-stroked"}},{"type":"Feature","geometry":{"type":"Point","coordinates":[5.567747,51.768831]},"properties":{"cellid":"47c6fda419e70e0b","marker-color":"#40B0F0","name":"Stop: Art [art]","title":"Stop: Art [art]","marker-size":"small","marker-symbol":"circle-stroked"}},{"type":"Feature","geometry":{"type":"Point","coordinates":[5.575903,51.762848]},"properties":{"cellid":"47c6fd9fe12ad1c3","marker-color":"#40B0F0","name":"Stop: Berghemse Buffer [buffer]","title":"Stop: Berghemse Buffer [buffer]","marker-size":"small","marker-symbol":"circle-stroked"}},{"type":"Feature","geometry":{"type":"Point","coordinates":[5.554233,51.787835]},"properties":{"cellid":"47c6fdcb245d8cad","marker-color":"#40B0F0","name":"Stop: De Zonneboom [zonneboom]","title":"Stop: De Zonneboom [zonneboom]","marker-size":"small","marker-symbol":"circle-stroked"}},{"type":"Feature","geometry":{"type":"Point","coordinates":[5.568258,51.769769]},"properties":{"cellid":"47c6fda46dcc1051","marker-color":"#40B0F0","name":"Stop: Entrance statue [entrance]","title":"Stop: Entrance statue [entrance]","marker-size":"small","marker-symbol":"circle-stroked"}},{"type":"Feature","geometry":{"type":"Point","coordinates":[5.576467,51.762907]},"properties":{"cellid":"47c6fd9fdc6ca95b","marker-color":"#40B0F0","name":"Stop: Half Pipe","title":"Stop: Half Pipe","marker-size":"small","marker-symbol":"circle-stroked"}},{"type":"Feature","geometry":{"type":"Point","coordinates":[5.57827,51.774995]},"properties":{"cellid":"47c6fd97c89eb781","marker-color":"#40B0F0","name":"Stop: Kids Playground [wolvepad]","title":"Stop: Kids Playground [wolvepad]","marker-size":"small","marker-symbol":"circle-stroked"}},{"type":"Feature","geometry":{"type":"Point","coordinates":[5.573911,51.772666]},"properties":{"cellid":"47c6fda2d0306ac7","marker-color":"#40B0F0","name":"Stop: Kids Playground 't Bikkeltje [bikkeltje; t bikkeltje; kids playground t bikketje]","title":"Stop: Kids Playground 't Bikkeltje [bikkeltje; t bikkeltje; kids playground t bikketje]","marker-size":"small","marker-symbol":"circle-stroked"}},{"type":"Feature","geometry":{"type":"Point","coordinates":[5.580286,51.773045]},"properties":{"cellid":"47c6fd977dcdea3d","marker-color":"#40B0F0","name":"Stop: Kids Playground Berghem II [berghem 2; berghem ii]","title":"Stop: Kids Playground Berghem II [berghem 2; berghem ii]","marker-size":"small","marker-symbol":"circle-stroked"}},{"type":"Feature","geometry":{"type":"Point","coordinates":[5.579155,51.772982]},"properties":{"cellid":"47c6fd9787848947","marker-color":"#40B0F0","name":"Stop: Kids Playground Berghem III [berghem 3; berghem iii]","title":"Stop: Kids Playground Berghem III [berghem 3; berghem iii]","marker-size":"small","marker-symbol":"circle-stroked"}},{"type":"Feature","geometry":{"type":"Point","coordinates":[5.575012,51.772042]},"properties":{"cellid":"47c6fda2be910ee1","marker-color":"#40B0F0","name":"Stop: Kids Playground Molenweg [molenweg]","title":"Stop: Kids Playground Molenweg [molenweg]","marker-size":"small","marker-symbol":"circle-stroked"}},{"type":"Feature","geometry":{"type":"Point","coordinates":[5.580047,51.774249]},"properties":{"cellid":"47c6fd97a000d0ab","marker-color":"#40B0F0","name":"Stop: Kids Soccerfield Berghem","title":"Stop: Kids Soccerfield Berghem","marker-size":"small","marker-symbol":"circle-stroked"}},{"type":"Feature","geometry":{"type":"Point","coordinates":[5.5755,51.763735]},"properties":{"cellid":"47c6fd9fed7b5723","marker-color":"#40B0F0","name":"Stop: Klim Spin [spin; klim]","title":"Stop: Klim Spin [spin; klim]","marker-size":"small","marker-symbol":"circle-stroked"}},{"type":"Feature","geometry":{"type":"Point","coordinates":[5.589211,51.74654]},"properties":{"cellid":"47c6fd6422f2e751","marker-color":"#40B0F0","name":"Stop: Landerdse hooibergroute nr. 24","title":"Stop: Landerdse hooibergroute nr. 24","marker-size":"small","marker-symbol":"circle-stroked"}},{"type":"Feature","geometry":{"type":"Point","coordinates":[5.569895,51.749038]},"properties":{"cellid":"47c6fd13185003bb","marker-color":"#40B0F0","name":"Stop: Maria Moeder","title":"Stop: Maria Moeder","marker-size":"small","marker-symbol":"circle-stroked"}},{"type":"Feature","geometry":{"type":"Point","coordinates":[5.571304,51.77205]},"properties":{"cellid":"47c6fda34010e3a7","marker-color":"#40B0F0","name":"Stop: Monument Gevallen Burgers Berghem [gevallen burgers]","title":"Stop: Monument Gevallen Burgers Berghem [gevallen burgers]","marker-size":"small","marker-symbol":"circle-stroked"}},{"type":"Feature","geometry":{"type":"Point","coordinates":[5.553782,51.779789]},"properties":{"cellid":"47c6fdb49b7e9b2d","marker-color":"#40B0F0","name":"Stop: Rhino On Rooftop [rhino]","title":"Stop: Rhino On Rooftop [rhino]","marker-size":"small","marker-symbol":"circle-stroked"}},{"type":"Feature","geometry":{"type":"Point","coordinates":[5.567866,51.76998]},"properties":{"cellid":"47c6fda469a82a6f","marker-color":"#40B0F0","name":"Stop: S' Jozef School [sint jozef; jozef school]","title":"Stop: S' Jozef School [sint jozef; jozef school]","marker-size":"small","marker-symbol":"circle-stroked"}},{"type":"Feature","geometry":{"type":"Point","coordinates":[5.56711,51.769882]},"properties":{"cellid":"47c6fda4469e2837","marker-color":"#40B0F0","name":"Stop: Saint Chris Church [saint chris]","title":"Stop: Saint Chris Church [saint chris]","marker-size":"small","marker-symbol":"circle-stroked"}},{"type":"Feature","geometry":{"type":"Point","coordinates":[5.561249,51.749451]},"properties":{"cellid":"47c6fd10fafb40e7","marker-color":"#40B0F0","name":"Stop: Solar Tree","title":"Stop: Solar Tree","marker-size":"small","marker-symbol":"circle-stroked"}},{"type":"Feature","geometry":{"type":"Point","coordinates":[5.556032,51.755706]},"properties":{"cellid":"47c6fd0456f47b47","marker-color":"#40B0F0","name":"Stop: Solar Tree 2","title":"Stop: Solar Tree 2","marker-size":"small","marker-symbol":"circle-stroked"}},{"type":"Feature","geometry":{"type":"Point","coordinates":[5.562827,51.772529]},"properties":{"cellid":"47c6fdaff48320bd","marker-color":"#40B0F0","name":"Stop: t Reut Playground [reut; reut playground; t reut playground]","title":"Stop: t Reut Playground [reut; reut playground; t reut playground]","marker-size":"small","marker-symbol":"circle-stroked"}},{"type":"Feature","geometry":{"type":"Point","coordinates":[5.565277,51.773888]},"properties":{"cellid":"47c6fdbaca3b7ec5","marker-color":"#40B0F0","name":"Stop: Vioolspelende vrouw Berghem [vioolspelend; vioolspelende vrouw]","title":"Stop: Vioolspelende vrouw Berghem [vioolspelend; vioolspelende vrouw]","marker-size":"small","marker-symbol":"circle-stroked"}},{"type":"Feature","geometry":{"type":"Point","coordinates":[5.586777,51.776991]},"properties":{"cellid":"47c6fd91713476e7","marker-color":"#40B0F0","name":"Stop: Voetbaloefenveld [oefenveld]","title":"Stop: Voetbaloefenveld [oefenveld]","marker-size":"small","marker-symbol":"circle-stroked"}},{"type":"Feature","geometry":{"type":"Point","coordinates":[5.571013,51.769126]},"properties":{"cellid":"47c6fda3c10b6e11","marker-color":"#40B0F0","name":"Stop: Wiel","title":"Stop: Wiel","marker-size":"small","marker-symbol":"circle-stroked"}},{"type":"Feature","geometry":{"type":"Point","coordinates":[5.552999,51.765969]},"properties":{"cellid":"47c6fdaa4dc570e5","marker-color":"#40B0F0","name":"Stop: Zonneboom","title":"Stop: Zonneboom","marker-size":"small","marker-symbol":"circle-stroked"}},{"type":"Feature","geometry":{"type":"Point","coordinates":[5.568164,51.769486]},"properties":{"cellid":"47c6fda4132bc82b","marker-color":"#40B0F0","name":"Stop: Zuster Van Liefde [zuster]","title":"Stop: Zuster Van Liefde [zuster]","marker-size":"small","marker-symbol":"circle-stroked"}},{"type":"Feature","geometry":{"type":"Point","coordinates":[5.506127,51.761419]},"properties":{"cellid":"47c6fc866eeafa41","marker-color":"#ff9900","name":"Gym: Bakkerij Mural Links [bakkerij; strik]","title":"Gym: Bakkerij Mural Links [bakkerij; strik]","marker-size":"small","marker-symbol":"fire-station"}},{"type":"Feature","geometry":{"type":"Point","coordinates":[5.528307,51.768389]},"properties":{"cellid":"47c6fc5ec41f4501","marker-color":"#ff9900","name":"Gym: Bankje Bergoss [bergoss]","title":"Gym: Bankje Bergoss [bergoss]","marker-size":"small","marker-symbol":"fire-station"}},{"type":"Feature","geometry":{"type":"Point","coordinates":[5.528739,51.767076]},"properties":{"cellid":"47c6fc5f295399d7","marker-color":"#ff9900","name":"Gym: Bergos Factory Murial [factory mural]","title":"Gym: Bergos Factory Murial [factory mural]","marker-size":"small","marker-symbol":"fire-station"}},{"type":"Feature","geometry":{"type":"Point","coordinates":[5.502255,51.751044]},"properties":{"cellid":"47c6fc9bcf3ea871","marker-color":"#ff9900","name":"Gym: Blauw Rendier [rendier]","title":"Gym: Blauw Rendier [rendier]","marker-size":"small","marker-symbol":"fire-station"}},{"type":"Feature","geometry":{"type":"Point","coordinates":[5.503587,51.756947]},"properties":{"cellid":"47c6fc84e6971e29","marker-color":"#ff9900","name":"Gym: Boerderij Dn Deel [dn deel; deel]","title":"Gym: Boerderij Dn Deel [dn deel; deel]","marker-size":"small","marker-symbol":"fire-station"}},{"type":"Feature","geometry":{"type":"Point","coordinates":[5.508432,51.754111]},"properties":{"cellid":"47c6fc9015e30c85","marker-color":"#ff9900","name":"Gym: Crouching Figure [crouching]","title":"Gym: Crouching Figure [crouching]","marker-size":"small","marker-symbol":"fire-station"}},{"type":"Feature","geometry":{"type":"Point","coordinates":[5.525453,51.772489]},"properties":{"cellid":"47c6fc5da2241f85","marker-color":"#ff9900","name":"Gym: De 3 Paters [3 paters]","title":"Gym: De 3 Paters [3 paters]","marker-size":"small","marker-symbol":"fire-station"}},{"type":"Feature","geometry":{"type":"Point","coordinates":[5.53039,51.764642]},"properties":{"cellid":"47c6fcf6200597a7","marker-color":"#ff9900","name":"Gym: De Pil van Organon [pil; pil van organon]","title":"Gym: De Pil van Organon [pil; pil van organon]","marker-size":"small","marker-symbol":"fire-station"}},{"type":"Feature","geometry":{"type":"Point","coordinates":[5.506949,51.778159]},"properties":{"cellid":"47c6fc70e91c8a11","marker-color":"#ff9900","name":"Gym: De Waterdrager [waterdrager]","title":"Gym: De Waterdrager [waterdrager]","marker-size":"small","marker-symbol":"fire-station"}},{"type":"Feature","geometry":{"type":"Point","coordinates":[5.533424,51.762884]},"properties":{"cellid":"47c6fcf795d91e37","marker-color":"#ff9900","name":"Gym: Dr Zwanenburg [zwanenburg]","title":"Gym: Dr Zwanenburg [zwanenburg]","marker-size":"small","marker-symbol":"fire-station"}},{"type":"Feature","geometry":{"type":"Point","coordinates":[5.519375,51.76011]},"properties":{"cellid":"47c6fc8b60e312f7","marker-color":"#ff9900","name":"Gym: Draak [draak golfbad oss]","title":"Gym: Draak [draak golfbad oss]","marker-size":"small","marker-symbol":"fire-station"}},{"type":"Feature","geometry":{"type":"Point","coordinates":[5.497342,51.748026]},"properties":{"cellid":"47c6fc9ee0b367c9","marker-color":"#ff9900","name":"Gym: Dwarf's Playground [dwarf; dwarfs]","title":"Gym: Dwarf's Playground [dwarf; dwarfs]","marker-size":"small","marker-symbol":"fire-station"}},{"type":"Feature","geometry":{"type":"Point","coordinates":[5.500602,51.776068]},"properties":{"cellid":"47c6fc782fea9eab","marker-color":"#ff9900","name":"Gym: Fountain [parklaan]","title":"Gym: Fountain [parklaan]","marker-size":"small","marker-symbol":"fire-station"}},{"type":"Feature","geometry":{"type":"Point","coordinates":[5.511422,51.78214]},"properties":{"cellid":"47c6fc72107ada7f","marker-color":"#ff9900","name":"Gym: Glijbaan Schutterij [schutterij]","title":"Gym: Glijbaan Schutterij [schutterij]","marker-size":"small","marker-symbol":"fire-station"}},{"type":"Feature","geometry":{"type":"Point","coordinates":[5.523903,51.764437]},"properties":{"cellid":"47c6fcf567b274e3","marker-color":"#ff9900","name":"Gym: Hand [hand raadhuislaan; raadhuislaan]","title":"Gym: Hand [hand raadhuislaan; raadhuislaan]","marker-size":"small","marker-symbol":"fire-station"}},{"type":"Feature","geometry":{"type":"Point","coordinates":[5.517887,51.752726]},"properties":{"cellid":"47c6fc92e8878ceb","marker-color":"#ff9900","name":"Gym: Handje [handje verdistraat; verdistraat]","title":"Gym: Handje [handje verdistraat; verdistraat]","marker-size":"small","marker-symbol":"fire-station"}},{"type":"Feature","geometry":{"type":"Point","coordinates":[5.507019,51.756684]},"properties":{"cellid":"47c6fc856126de7b","marker-color":"#ff9900","name":"Gym: Handje bij Oss West III [handje; oss west; station oss west]","title":"Gym: Handje bij Oss West III [handje; oss west; station oss west]","marker-size":"small","marker-symbol":"fire-station"}},{"type":"Feature","geometry":{"type":"Point","coordinates":[5.526927,51.776447]},"properties":{"cellid":"47c6fc42c352b7cd","marker-color":"#ff9900","name":"Gym: Horse Statue [horse]","title":"Gym: Horse Statue [horse]","marker-size":"small","marker-symbol":"fire-station"}},{"type":"Feature","geometry":{"type":"Point","coordinates":[5.528841,51.758636]},"properties":{"cellid":"47c6fcf1465e294b","marker-color":"#ff9900","name":"Gym: Jesus Statue [jezus]","title":"Gym: Jesus Statue [jezus]","marker-size":"small","marker-symbol":"fire-station"}},{"type":"Feature","geometry":{"type":"Point","coordinates":[5.531773,51.75364]},"properties":{"cellid":"47c6fcefe6b9a16b","marker-color":"#ff9900","name":"Gym: Joodse Begraafplaats [begraafplaats]","title":"Gym: Joodse Begraafplaats [begraafplaats]","marker-size":"small","marker-symbol":"fire-station"}},{"type":"Feature","geometry":{"type":"Point","coordinates":[5.501498,51.751069]},"properties":{"cellid":"47c6fc9bc235ba7f","marker-color":"#ff9900","name":"Gym: Kasteel Snor [snor]","title":"Gym: Kasteel Snor [snor]","marker-size":"small","marker-symbol":"fire-station"}},{"type":"Feature","geometry":{"type":"Point","coordinates":[5.514124,51.77151]},"properties":{"cellid":"47c6fc6464ed8529","marker-color":"#ff9900","name":"Gym: Kerk [Pauluskerk]","title":"Gym: Kerk [Pauluskerk]","marker-size":"small","marker-symbol":"fire-station"}},{"type":"Feature","geometry":{"type":"Point","coordinates":[5.515854,51.760002]},"properties":{"cellid":"47c6fc8c0a1c3b4d","marker-color":"#ff9900","name":"Gym: Koning Op Dak [koning; dak; op dak]","title":"Gym: Koning Op Dak [koning; dak; op dak]","marker-size":"small","marker-symbol":"fire-station"}},{"type":"Feature","geometry":{"type":"Point","coordinates":[5.504161,51.774056]},"properties":{"cellid":"47c6fc798090674d","marker-color":"#ff9900","name":"Gym: Kunst Poppen [poppen]","title":"Gym: Kunst Poppen [poppen]","marker-size":"small","marker-symbol":"fire-station"}},{"type":"Feature","geometry":{"type":"Point","coordinates":[5.539611,51.772111]},"properties":{"cellid":"47c6fc50f8b74ea7","marker-color":"#ff9900","name":"Gym: Marmere Pilaar [marmeren; marmer; marmere; pilaar; marmeren pilaar]","title":"Gym: Marmere Pilaar [marmeren; marmer; marmere; pilaar; marmeren pilaar]","marker-size":"small","marker-symbol":"fire-station"}},{"type":"Feature","geometry":{"type":"Point","coordinates":[5.519191,51.763]},"properties":{"cellid":"47c6fc8afb173fef","marker-color":"#ff9900","name":"Gym: Metal Art","title":"Gym: Metal Art","marker-size":"small","marker-symbol":"fire-station"}},{"type":"Feature","geometry":{"type":"Point","coordinates":[5.520532,51.765507]},"properties":{"cellid":"47c6fc60223d55e3","marker-color":"#ff9900","name":"Gym: Mill Oss","title":"Gym: Mill Oss","marker-size":"small","marker-symbol":"fire-station"}},{"type":"Feature","geometry":{"type":"Point","coordinates":[5.537143,51.753596]},"properties":{"cellid":"47c6fce4d262c257","marker-color":"#ff9900","name":"Gym: Modern Art [emmalaan]","title":"Gym: Modern Art [emmalaan]","marker-size":"small","marker-symbol":"fire-station"}},{"type":"Feature","geometry":{"type":"Point","coordinates":[5.495572,51.76251]},"properties":{"cellid":"47c6fc81deff2039","marker-color":"#ff9900","name":"Gym: Old Windmill [windmill]","title":"Gym: Old Windmill [windmill]","marker-size":"small","marker-symbol":"fire-station"}},{"type":"Feature","geometry":{"type":"Point","coordinates":[5.524818,51.764264]},"properties":{"cellid":"47c6fcf570a03b93","marker-color":"#ff9900","name":"Gym: Oss [raadhuishof]","title":"Gym: Oss [raadhuishof]","marker-size":"small","marker-symbol":"fire-station"}},{"type":"Feature","geometry":{"type":"Point","coordinates":[5.498342,51.775493]},"properties":{"cellid":"47c6fc780ca6dfcf","marker-color":"#ff9900","name":"Gym: Playground Kraaienest [kraaiennest]","title":"Gym: Playground Kraaienest [kraaiennest]","marker-size":"small","marker-symbol":"fire-station"}},{"type":"Feature","geometry":{"type":"Point","coordinates":[5.544385,51.769287]},"properties":{"cellid":"47c6fc540aa6603d","marker-color":"#ff9900","name":"Gym: Schommelplaats Park Waterlaat [schommeplaats; waterlaat]","title":"Gym: Schommelplaats Park Waterlaat [schommeplaats; waterlaat]","marker-size":"small","marker-symbol":"fire-station"}},{"type":"Feature","geometry":{"type":"Point","coordinates":[5.551965,51.769926]},"properties":{"cellid":"47c6fdac91f92b95","marker-color":"#ff9900","name":"Gym: Solar Tree [osseweg]","title":"Gym: Solar Tree [osseweg]","marker-size":"small","marker-symbol":"fire-station"}},{"type":"Feature","geometry":{"type":"Point","coordinates":[5.498278,51.770635]},"properties":{"cellid":"47c6fc7f468a5a1f","marker-color":"#ff9900","name":"Gym: Speeltuin Appelhof [appelhof]","title":"Gym: Speeltuin Appelhof [appelhof]","marker-size":"small","marker-symbol":"fire-station"}},{"type":"Feature","geometry":{"type":"Point","coordinates":[5.512807,51.755554]},"properties":{"cellid":"47c6fc8e1aa17e73","marker-color":"#ff9900","name":"Gym: Speeltuin Beethovengaarde [beethovengaarde]","title":"Gym: Speeltuin Beethovengaarde [beethovengaarde]","marker-size":"small","marker-symbol":"fire-station"}},{"type":"Feature","geometry":{"type":"Point","coordinates":[5.520733,51.779438]},"properties":{"cellid":"47c6fc69124ac45d","marker-color":"#ff9900","name":"Gym: Speeltuin Haagpoort [haagpoort]","title":"Gym: Speeltuin Haagpoort [haagpoort]","marker-size":"small","marker-symbol":"fire-station"}},{"type":"Feature","geometry":{"type":"Point","coordinates":[5.535502,51.754953]},"properties":{"cellid":"47c6fcfac3c65365","marker-color":"#ff9900","name":"Gym: Speeltuin Hendriklaan [hendriklaan]","title":"Gym: Speeltuin Hendriklaan [hendriklaan]","marker-size":"small","marker-symbol":"fire-station"}},{"type":"Feature","geometry":{"type":"Point","coordinates":[5.526402,51.759218]},"properties":{"cellid":"47c6fcf3f1541611","marker-color":"#ff9900","name":"Gym: Speeltuin Rozenstraat [rozenstraat]","title":"Gym: Speeltuin Rozenstraat [rozenstraat]","marker-size":"small","marker-symbol":"fire-station"}},{"type":"Feature","geometry":{"type":"Point","coordinates":[5.522446,51.769081]},"properties":{"cellid":"47c6fc60a2696b35","marker-color":"#ff9900","name":"Gym: St Mary with Angels [grote kerk; st mary]","title":"Gym: St Mary with Angels [grote kerk; st mary]","marker-size":"small","marker-symbol":"fire-station"}},{"type":"Feature","geometry":{"type":"Point","coordinates":[5.529917,51.76977]},"properties":{"cellid":"47c6fc5954f7b771","marker-color":"#ff9900","name":"Gym: Statue of Saint Mary [saint mary]","title":"Gym: Statue of Saint Mary [saint mary]","marker-size":"small","marker-symbol":"fire-station"}},{"type":"Feature","geometry":{"type":"Point","coordinates":[5.524279,51.768748]},"properties":{"cellid":"47c6fc5e3ef45991","marker-color":"#ff9900","name":"Gym: T Gengske [gengske; t gengske]","title":"Gym: T Gengske [gengske; t gengske]","marker-size":"small","marker-symbol":"fire-station"}},{"type":"Feature","geometry":{"type":"Point","coordinates":[5.530683,51.765212]},"properties":{"cellid":"47c6fc5899b3f2b3","marker-color":"#ff9900","name":"Gym: Train Station Oss [station oss]","title":"Gym: Train Station Oss [station oss]","marker-size":"small","marker-symbol":"fire-station"}},{"type":"Feature","geometry":{"type":"Point","coordinates":[5.496533,51.772758]},"properties":{"cellid":"47c6fb8742cdb7f1","marker-color":"#ff9900","name":"Gym: Voetbalveld Meerval","title":"Gym: Voetbalveld Meerval","marker-size":"small","marker-symbol":"fire-station"}},{"type":"Feature","geometry":{"type":"Point","coordinates":[5.529617,51.759294]},"properties":{"cellid":"47c6fcf13491ee19","marker-color":"#ff9900","name":"Gym: Voormalige Kazerne [kazerne]","title":"Gym: Voormalige Kazerne [kazerne]","marker-size":"small","marker-symbol":"fire-station"}},{"type":"Feature","geometry":{"type":"Point","coordinates":[5.493715,51.765093]},"properties":{"cellid":"47c6fb7f96193dc3","marker-color":"#ff9900","name":"Gym: Wall Art [hazenkamplaan]","title":"Gym: Wall Art [hazenkamplaan]","marker-size":"small","marker-symbol":"fire-station"}},{"type":"Feature","geometry":{"type":"Point","coordinates":[5.526161,51.770612]},"properties":{"cellid":"47c6fc5dd1633f15","marker-color":"#ff9900","name":"Gym: Waterpomp Met Drink Bak [waterpomp; drinkbak; drink bak; waterpomp met drinkbak]","title":"Gym: Waterpomp Met Drink Bak [waterpomp; drinkbak; drink bak; waterpomp met drinkbak]","marker-size":"small","marker-symbol":"fire-station"}},{"type":"Feature","geometry":{"type":"Point","coordinates":[5.51535,51.765574]},"properties":{"cellid":"47c6fc620125792b","marker-color":"#ff9900","name":"Gym: Watertoren","title":"Gym: Watertoren","marker-size":"small","marker-symbol":"fire-station"}},{"type":"Feature","geometry":{"type":"Point","coordinates":[5.505349,51.762786]},"properties":{"cellid":"47c6fc86563df5b7","marker-color":"#ff9900","name":"Gym: Zwaan","title":"Gym: Zwaan","marker-size":"small","marker-symbol":"fire-station"}},{"type":"Feature","geometry":{"type":"Point","coordinates":[5.565772,51.774282]},"properties":{"cellid":"47c6fdbac58e6b13","marker-color":"#ff9900","name":"Gym: Berghem - Burgemeester van Erp [burgemeester; van erp]","title":"Gym: Berghem - Burgemeester van Erp [burgemeester; van erp]","marker-size":"small","marker-symbol":"fire-station"}},{"type":"Feature","geometry":{"type":"Point","coordinates":[5.556675,51.769623]},"properties":{"cellid":"47c6fdaea4f5737d","marker-color":"#ff9900","name":"Gym: Biggest Buddha Statue in the World [biggest buddha; buddha statue; biggest boedha; boedha statue]","title":"Gym: Biggest Buddha Statue in the World [biggest buddha; buddha statue; biggest boedha; boedha statue]","marker-size":"small","marker-symbol":"fire-station"}},{"type":"Feature","geometry":{"type":"Point","coordinates":[5.569735,51.77263]},"properties":{"cellid":"47c6fda4a7bdfbaf","marker-color":"#ff9900","name":"Gym: Compass Statue [compass]","title":"Gym: Compass Statue [compass]","marker-size":"small","marker-symbol":"fire-station"}},{"type":"Feature","geometry":{"type":"Point","coordinates":[5.572628,51.772345]},"properties":{"cellid":"47c6fda3241860b5","marker-color":"#ff9900","name":"Gym: Duo Swings [swings]","title":"Gym: Duo Swings [swings]","marker-size":"small","marker-symbol":"fire-station"}},{"type":"Feature","geometry":{"type":"Point","coordinates":[5.574944,51.772923]},"properties":{"cellid":"47c6fda2b5960907","marker-color":"#ff9900","name":"Gym: Horseman","title":"Gym: Horseman","marker-size":"small","marker-symbol":"fire-station"}},{"type":"Feature","geometry":{"type":"Point","coordinates":[5.581295,51.773247]},"properties":{"cellid":"47c6fd9766df6979","marker-color":"#ff9900","name":"Gym: Kids Playground Berghem I [berghem 1; berghem i]","title":"Gym: Kids Playground Berghem I [berghem 1; berghem i]","marker-size":"small","marker-symbol":"fire-station"}},{"type":"Feature","geometry":{"type":"Point","coordinates":[5.582002,51.771694]},"properties":{"cellid":"47c6fd99ed86375f","marker-color":"#ff9900","name":"Gym: Little Playground Berghem","title":"Gym: Little Playground Berghem","marker-size":"small","marker-symbol":"fire-station"}},{"type":"Feature","geometry":{"type":"Point","coordinates":[5.581262,51.774927]},"properties":{"cellid":"47c6fd971a5dac71","marker-color":"#ff9900","name":"Gym: Map Of Berghem And Oss [map; map of berghem]","title":"Gym: Map Of Berghem And Oss [map; map of berghem]","marker-size":"small","marker-symbol":"fire-station"}},{"type":"Feature","geometry":{"type":"Point","coordinates":[5.521591,51.780308]},"properties":{"cellid":"47c6fc6979e23835","marker-color":"#FF2020","name":"Ex-raid Gym: Cow Statue [cow]","title":"Ex-raid Gym: Cow Statue [cow]","marker-size":"small","marker-symbol":"minefield"}},{"type":"Feature","geometry":{"type":"Point","coordinates":[5.519807,51.772689]},"properties":{"cellid":"47c6fc66fbb56ea1","marker-color":"#FF2020","name":"Ex-raid Gym: Cross at Oss [cross]","title":"Ex-raid Gym: Cross at Oss [cross]","marker-size":"small","marker-symbol":"minefield"}},{"type":"Feature","geometry":{"type":"Point","coordinates":[5.510695,51.761903]},"properties":{"cellid":"47c6fc88e8dba8af","marker-color":"#FF2020","name":"Ex-raid Gym: Heilig Hart Church [heilig hart]","title":"Ex-raid Gym: Heilig Hart Church [heilig hart]","marker-size":"small","marker-symbol":"minefield"}},{"type":"Feature","geometry":{"type":"Point","coordinates":[5.501185,51.747477]},"properties":{"cellid":"47c6fc98e264ba8b","marker-color":"#FF2020","name":"Ex-raid Gym: Het Hert [hert]","title":"Ex-raid Gym: Het Hert [hert]","marker-size":"small","marker-symbol":"minefield"}},{"type":"Feature","geometry":{"type":"Point","coordinates":[5.496448,51.769631]},"properties":{"cellid":"47c6fb809cc75677","marker-color":"#FF2020","name":"Ex-raid Gym: IJzertijdboerderij Ussen [ijzertijd]","title":"Ex-raid Gym: IJzertijdboerderij Ussen [ijzertijd]","marker-size":"small","marker-symbol":"minefield"}},{"type":"Feature","geometry":{"type":"Point","coordinates":[5.541671,51.757761]},"properties":{"cellid":"47c6fcfc1393aa69","marker-color":"#FF2020","name":"Ex-raid Gym: Kids Playground Zuid [playground zuid]","title":"Ex-raid Gym: Kids Playground Zuid [playground zuid]","marker-size":"small","marker-symbol":"minefield"}},{"type":"Feature","geometry":{"type":"Point","coordinates":[5.511939,51.778906]},"properties":{"cellid":"47c6fc6e2afbb075","marker-color":"#FF2020","name":"Ex-raid Gym: Lancer Sculpture [lancer]","title":"Ex-raid Gym: Lancer Sculpture [lancer]","marker-size":"small","marker-symbol":"minefield"}},{"type":"Feature","geometry":{"type":"Point","coordinates":[5.501357,51.760628]},"properties":{"cellid":"47c6fc83ffb320e1","marker-color":"#FF2020","name":"Ex-raid Gym: Lippen","title":"Ex-raid Gym: Lippen","marker-size":"small","marker-symbol":"minefield"}},{"type":"Feature","geometry":{"type":"Point","coordinates":[5.516097,51.775197]},"properties":{"cellid":"47c6fc65ed6b941b","marker-color":"#FF2020","name":"Ex-raid Gym: Mannetje Bij De Handboog [handboog]","title":"Ex-raid Gym: Mannetje Bij De Handboog [handboog]","marker-size":"small","marker-symbol":"minefield"}},{"type":"Feature","geometry":{"type":"Point","coordinates":[5.504096,51.769879]},"properties":{"cellid":"47c6fc7c1875989f","marker-color":"#FF2020","name":"Ex-raid Gym: Mozaïek Kunst [mozaiek kunst]","title":"Ex-raid Gym: Mozaïek Kunst [mozaiek kunst]","marker-size":"small","marker-symbol":"minefield"}},{"type":"Feature","geometry":{"type":"Point","coordinates":[5.532446,51.773701]},"properties":{"cellid":"47c6fc5b15b7ab3b","marker-color":"#FF2020","name":"Ex-raid Gym: Peach Memorial [peach; pease]","title":"Ex-raid Gym: Peach Memorial [peach; pease]","marker-size":"small","marker-symbol":"minefield"}},{"type":"Feature","geometry":{"type":"Point","coordinates":[5.500713,51.777193]},"properties":{"cellid":"47c6fc778f885a59","marker-color":"#FF2020","name":"Ex-raid Gym: Piramide Kunst [piramide; pyramide]","title":"Ex-raid Gym: Piramide Kunst [piramide; pyramide]","marker-size":"small","marker-symbol":"minefield"}},{"type":"Feature","geometry":{"type":"Point","coordinates":[5.539889,51.768586]},"properties":{"cellid":"47c6fc56db949937","marker-color":"#FF2020","name":"Ex-raid Gym: Roodborst Speeltuin [roodborst]","title":"Ex-raid Gym: Roodborst Speeltuin [roodborst]","marker-size":"small","marker-symbol":"minefield"}},{"type":"Feature","geometry":{"type":"Point","coordinates":[5.538312,51.759585]},"properties":{"cellid":"47c6fcf97abf5c27","marker-color":"#FF2020","name":"Ex-raid Gym: Soccerfield Zuiderpark [soccerfield; zuiderpark]","title":"Ex-raid Gym: Soccerfield Zuiderpark [soccerfield; zuiderpark]","marker-size":"small","marker-symbol":"minefield"}},{"type":"Feature","geometry":{"type":"Point","coordinates":[5.505929,51.77363]},"properties":{"cellid":"47c6fc7bb50fe9db","marker-color":"#FF2020","name":"Ex-raid Gym: Speeltuin [purperbeer]","title":"Ex-raid Gym: Speeltuin [purperbeer]","marker-size":"small","marker-symbol":"minefield"}},{"type":"Feature","geometry":{"type":"Point","coordinates":[5.495767,51.75251]},"properties":{"cellid":"47c6fc9da56ecf51","marker-color":"#FF2020","name":"Ex-raid Gym: Speeltuin De Kempenaertstraat [kempenaerstraat]","title":"Ex-raid Gym: Speeltuin De Kempenaertstraat [kempenaerstraat]","marker-size":"small","marker-symbol":"minefield"}},{"type":"Feature","geometry":{"type":"Point","coordinates":[5.543698,51.773557]},"properties":{"cellid":"47c6fc521e186b8f","marker-color":"#FF2020","name":"Ex-raid Gym: Speeltuin Dobbe [dobbe]","title":"Ex-raid Gym: Speeltuin Dobbe [dobbe]","marker-size":"small","marker-symbol":"minefield"}},{"type":"Feature","geometry":{"type":"Point","coordinates":[5.532293,51.770108]},"properties":{"cellid":"47c6fc5bd766fa7f","marker-color":"#FF2020","name":"Ex-raid Gym: Statue Jurgensplein [jurgensplein; jurgenshuis; anton jurgenshuis]","title":"Ex-raid Gym: Statue Jurgensplein [jurgensplein; jurgenshuis; anton jurgenshuis]","marker-size":"small","marker-symbol":"minefield"}},{"type":"Feature","geometry":{"type":"Point","coordinates":[5.491891,51.76766]},"properties":{"cellid":"47c6fb81c7258a7b","marker-color":"#FF2020","name":"Ex-raid Gym: Voetbal Veld [voetbalveld]","title":"Ex-raid Gym: Voetbal Veld [voetbalveld]","marker-size":"small","marker-symbol":"minefield"}},{"type":"Feature","geometry":{"type":"Point","coordinates":[5.524134,51.753183]},"properties":{"cellid":"47c6fced97ad8b73","marker-color":"#FF2020","name":"Ex-raid Gym: Voetbalveld Sibeliuspark [Sibeliuspark]","title":"Ex-raid Gym: Voetbalveld Sibeliuspark [Sibeliuspark]","marker-size":"small","marker-symbol":"minefield"}},{"type":"Feature","geometry":{"type":"Point","coordinates":[5.510038,51.754783]},"properties":{"cellid":"47c6fc902b992425","marker-color":"#FF2020","name":"Ex-raid Gym: Walking figure Oss [walking; walking figure]","title":"Ex-raid Gym: Walking figure Oss [walking; walking figure]","marker-size":"small","marker-symbol":"minefield"}},{"type":"Feature","geometry":{"type":"Point","coordinates":[5.565914,51.769766]},"properties":{"cellid":"47c6fda5b527c545","marker-color":"#FF2020","name":"Ex-raid Gym: Art Installation at Church of Berghem [art installation]","title":"Ex-raid Gym: Art Installation at Church of Berghem [art installation]","marker-size":"small","marker-symbol":"minefield"}},{"type":"Feature","geometry":{"type":"Point","coordinates":[5.524279,51.768748]},"properties":{"cellid":"47c6fc5e3ef45991","marker-color":"#808080","name":"Unknown: 'T Gengske","title":"Unknown: 'T Gengske","marker-size":"small","marker-symbol":"marker-stroked"}},{"type":"Feature","geometry":{"type":"Point","coordinates":[5.536725,51.763769]},"properties":{"cellid":"47c6fcf80d4ec661","marker-color":"#808080","name":"Unknown: A. D. 1915-1916","title":"Unknown: A. D. 1915-1916","marker-size":"small","marker-symbol":"marker-stroked"}},{"type":"Feature","geometry":{"type":"Point","coordinates":[5.519998,51.768279]},"properties":{"cellid":"47c6fc60fb84a403","marker-color":"#808080","name":"Unknown: Ballonnen 2","title":"Unknown: Ballonnen 2","marker-size":"small","marker-symbol":"marker-stroked"}},{"type":"Feature","geometry":{"type":"Point","coordinates":[5.497634,51.75548]},"properties":{"cellid":"47c6fc9cd483fc3b","marker-color":"#808080","name":"Unknown: Basketbal Albarda","title":"Unknown: Basketbal Albarda","marker-size":"small","marker-symbol":"marker-stroked"}},{"type":"Feature","geometry":{"type":"Point","coordinates":[5.509282,51.774384]},"properties":{"cellid":"47c6fc7ac2902281","marker-color":"#808080","name":"Unknown: Basketbalveld Brabantstraat","title":"Unknown: Basketbalveld Brabantstraat","marker-size":"small","marker-symbol":"marker-stroked"}},{"type":"Feature","geometry":{"type":"Point","coordinates":[5.505346,51.767161]},"properties":{"cellid":"47c6fc7d9800d247","marker-color":"#808080","name":"Unknown: Basketbalveld Grote Beer","title":"Unknown: Basketbalveld Grote Beer","marker-size":"small","marker-symbol":"marker-stroked"}},{"type":"Feature","geometry":{"type":"Point","coordinates":[5.524479,51.760391]},"properties":{"cellid":"47c6fcf48815d40d","marker-color":"#808080","name":"Unknown: Basketbalveld Kortfoort","title":"Unknown: Basketbalveld Kortfoort","marker-size":"small","marker-symbol":"marker-stroked"}},{"type":"Feature","geometry":{"type":"Point","coordinates":[5.500207,51.776244]},"properties":{"cellid":"47c6fc78246b95dd","marker-color":"#808080","name":"Unknown: Basketbalveld Parklaan","title":"Unknown: Basketbalveld Parklaan","marker-size":"small","marker-symbol":"marker-stroked"}},{"type":"Feature","geometry":{"type":"Point","coordinates":[5.508521,51.748716]},"properties":{"cellid":"47c6fc9723ba4dc5","marker-color":"#808080","name":"Unknown: Basketbalveld Tollensstraat","title":"Unknown: Basketbalveld Tollensstraat","marker-size":"small","marker-symbol":"marker-stroked"}},{"type":"Feature","geometry":{"type":"Point","coordinates":[5.501754,51.750743]},"properties":{"cellid":"47c6fc9bdb4746a9","marker-color":"#808080","name":"Unknown: Blauw Rendier","title":"Unknown: Blauw Rendier","marker-size":"small","marker-symbol":"marker-stroked"}},{"type":"Feature","geometry":{"type":"Point","coordinates":[5.527093,51.765803]},"properties":{"cellid":"47c6fc5f698113ef","marker-color":"#808080","name":"Unknown: Blueprint on a Wall","title":"Unknown: Blueprint on a Wall","marker-size":"small","marker-symbol":"marker-stroked"}},{"type":"Feature","geometry":{"type":"Point","coordinates":[5.52811,51.758455]},"properties":{"cellid":"47c6fcf15c85e375","marker-color":"#808080","name":"Unknown: Bouwvereniging St. Willibrordus","title":"Unknown: Bouwvereniging St. Willibrordus","marker-size":"small","marker-symbol":"marker-stroked"}},{"type":"Feature","geometry":{"type":"Point","coordinates":[5.525499,51.76009]},"properties":{"cellid":"47c6fcf470f936cd","marker-color":"#808080","name":"Unknown: Buurtcentrum Kortfoort","title":"Unknown: Buurtcentrum Kortfoort","marker-size":"small","marker-symbol":"marker-stroked"}},{"type":"Feature","geometry":{"type":"Point","coordinates":[5.499726,51.773283]},"properties":{"cellid":"47c6fc78ee4b89d9","marker-color":"#808080","name":"Unknown: Buurttuin De Biezen","title":"Unknown: Buurttuin De Biezen","marker-size":"small","marker-symbol":"marker-stroked"}},{"type":"Feature","geometry":{"type":"Point","coordinates":[5.509192,51.772175]},"properties":{"cellid":"47c6fc7b40ccbce9","marker-color":"#808080","name":"Unknown: Cruijff Court Brabantstraat","title":"Unknown: Cruijff Court Brabantstraat","marker-size":"small","marker-symbol":"marker-stroked"}},{"type":"Feature","geometry":{"type":"Point","coordinates":[5.525277,51.772628]},"properties":{"cellid":"47c6fc5d9f6ee915","marker-color":"#808080","name":"Unknown: De 3 Paters","title":"Unknown: De 3 Paters","marker-size":"small","marker-symbol":"marker-stroked"}},{"type":"Feature","geometry":{"type":"Point","coordinates":[5.506842,51.777984]},"properties":{"cellid":"47c6fc70ea2d1dfb","marker-color":"#808080","name":"Unknown: De Waterdrager","title":"Unknown: De Waterdrager","marker-size":"small","marker-symbol":"marker-stroked"}},{"type":"Feature","geometry":{"type":"Point","coordinates":[5.525947,51.77777]},"properties":{"cellid":"47c6fc428eaaf843","marker-color":"#808080","name":"Unknown: DOT Oss","title":"Unknown: DOT Oss","marker-size":"small","marker-symbol":"marker-stroked"}},{"type":"Feature","geometry":{"type":"Point","coordinates":[5.524942,51.762269]},"properties":{"cellid":"47c6fcf45555a917","marker-color":"#808080","name":"Unknown: Even Bijkletsen","title":"Unknown: Even Bijkletsen","marker-size":"small","marker-symbol":"marker-stroked"}},{"type":"Feature","geometry":{"type":"Point","coordinates":[5.520507,51.772566]},"properties":{"cellid":"47c6fc6702f4ff19","marker-color":"#808080","name":"Unknown: Fietsen Doe Je In Brabant 74","title":"Unknown: Fietsen Doe Je In Brabant 74","marker-size":"small","marker-symbol":"marker-stroked"}},{"type":"Feature","geometry":{"type":"Point","coordinates":[5.510334,51.751366]},"properties":{"cellid":"47c6fc9119f395ad","marker-color":"#808080","name":"Unknown: Gedicht Pc.Hooftstraat","title":"Unknown: Gedicht Pc.Hooftstraat","marker-size":"small","marker-symbol":"marker-stroked"}},{"type":"Feature","geometry":{"type":"Point","coordinates":[5.517553,51.769247]},"properties":{"cellid":"47c6fc6142759697","marker-color":"#808080","name":"Unknown: Giraffe Glijbaan","title":"Unknown: Giraffe Glijbaan","marker-size":"small","marker-symbol":"marker-stroked"}},{"type":"Feature","geometry":{"type":"Point","coordinates":[5.519727,51.760996]},"properties":{"cellid":"47c6fc8b6a782a19","marker-color":"#808080","name":"Unknown: Golfbad","title":"Unknown: Golfbad","marker-size":"small","marker-symbol":"marker-stroked"}},{"type":"Feature","geometry":{"type":"Point","coordinates":[5.525001,51.762673]},"properties":{"cellid":"47c6fcf5075f258f","marker-color":"#808080","name":"Unknown: Herdenkingsstenen","title":"Unknown: Herdenkingsstenen","marker-size":"small","marker-symbol":"marker-stroked"}},{"type":"Feature","geometry":{"type":"Point","coordinates":[5.52327,51.76996]},"properties":{"cellid":"47c6fc5e021f8987","marker-color":"#808080","name":"Unknown: Herdenkingsstenen de Vries","title":"Unknown: Herdenkingsstenen de Vries","marker-size":"small","marker-symbol":"marker-stroked"}},{"type":"Feature","geometry":{"type":"Point","coordinates":[5.527805,51.761852]},"properties":{"cellid":"47c6fcf42be5e6f3","marker-color":"#808080","name":"Unknown: Herdenkingsstenen Floraliastraat","title":"Unknown: Herdenkingsstenen Floraliastraat","marker-size":"small","marker-symbol":"marker-stroked"}},{"type":"Feature","geometry":{"type":"Point","coordinates":[5.523646,51.767271]},"properties":{"cellid":"47c6fc5fce7cf781","marker-color":"#808080","name":"Unknown: Herdenkingsstenen Goldsmid","title":"Unknown: Herdenkingsstenen Goldsmid","marker-size":"small","marker-symbol":"marker-stroked"}},{"type":"Feature","geometry":{"type":"Point","coordinates":[5.539808,51.760056]},"properties":{"cellid":"47c6fcf946dcea91","marker-color":"#808080","name":"Unknown: Het Blauwe Hokje","title":"Unknown: Het Blauwe Hokje","marker-size":"small","marker-symbol":"marker-stroked"}},{"type":"Feature","geometry":{"type":"Point","coordinates":[5.530838,51.761045]},"properties":{"cellid":"47c6fcf6e4067657","marker-color":"#808080","name":"Unknown: Het Oog","title":"Unknown: Het Oog","marker-size":"small","marker-symbol":"marker-stroked"}},{"type":"Feature","geometry":{"type":"Point","coordinates":[5.506137,51.756895]},"properties":{"cellid":"47c6fc856c06b867","marker-color":"#808080","name":"Unknown: Het Piratenschip","title":"Unknown: Het Piratenschip","marker-size":"small","marker-symbol":"marker-stroked"}},{"type":"Feature","geometry":{"type":"Point","coordinates":[5.511448,51.763874]},"properties":{"cellid":"47c6fc884f2855e3","marker-color":"#808080","name":"Unknown: Het Rode Klimrek","title":"Unknown: Het Rode Klimrek","marker-size":"small","marker-symbol":"marker-stroked"}},{"type":"Feature","geometry":{"type":"Point","coordinates":[5.514654,51.779399]},"properties":{"cellid":"47c6fc6e5a3f123b","marker-color":"#808080","name":"Unknown: Hondenspeelplaats Mettegeupel","title":"Unknown: Hondenspeelplaats Mettegeupel","marker-size":"small","marker-symbol":"marker-stroked"}},{"type":"Feature","geometry":{"type":"Point","coordinates":[5.519855,51.767867]},"properties":{"cellid":"47c6fc60ff4c5951","marker-color":"#808080","name":"Unknown: Jeu de Boules","title":"Unknown: Jeu de Boules","marker-size":"small","marker-symbol":"marker-stroked"}},{"type":"Feature","geometry":{"type":"Point","coordinates":[5.536977,51.758873]},"properties":{"cellid":"47c6fcfa297a5143","marker-color":"#808080","name":"Unknown: Jeu De Boules Baan 001","title":"Unknown: Jeu De Boules Baan 001","marker-size":"small","marker-symbol":"marker-stroked"}},{"type":"Feature","geometry":{"type":"Point","coordinates":[5.502664,51.753988]},"properties":{"cellid":"47c6fc9b17f2be1d","marker-color":"#808080","name":"Unknown: Jeu De boules Baantje","title":"Unknown: Jeu De boules Baantje","marker-size":"small","marker-symbol":"marker-stroked"}},{"type":"Feature","geometry":{"type":"Point","coordinates":[5.508801,51.760289]},