{"features":[{"type":"Feature","geometry":{"type":"Point","coordinates":[5.382946,51.707558]},"properties":{"cellid":"47c6e56087002c33","marker-color":"#40B0F0","name":"Stop: Petting Zoo Maliskamp [maliskamp]","title":"Stop: Petting Zoo Maliskamp [maliskamp]","marker-size":"small","marker-symbol":"circle-stroked"}},{"type":"Feature","geometry":{"type":"Point","coordinates":[5.374128,51.719982]},"properties":{"cellid":"47c6effa115033d1","marker-color":"#ff9900","name":"Gym: Basketball Field","title":"Gym: Basketball Field","marker-size":"small","marker-symbol":"fire-station"}},{"type":"Feature","geometry":{"type":"Point","coordinates":[5.35051,51.730591]},"properties":{"cellid":"47c6efd8a9b54f9f","marker-color":"#ff9900","name":"Gym: Boomfeestdag De Hoven","title":"Gym: Boomfeestdag De Hoven","marker-size":"small","marker-symbol":"fire-station"}},{"type":"Feature","geometry":{"type":"Point","coordinates":[5.350604,51.709561]},"properties":{"cellid":"47c6efc07f7aae3d","marker-color":"#ff9900","name":"Gym: Bridge Over Troubled Water","title":"Gym: Bridge Over Troubled Water","marker-size":"small","marker-symbol":"fire-station"}},{"type":"Feature","geometry":{"type":"Point","coordinates":[5.362967,51.704328]},"properties":{"cellid":"47c6ef922e201681","marker-color":"#ff9900","name":"Gym: Buddha Fountain at Wapen Van Rosmalen","title":"Gym: Buddha Fountain at Wapen Van Rosmalen","marker-size":"small","marker-symbol":"fire-station"}},{"type":"Feature","geometry":{"type":"Point","coordinates":[5.370254,51.717734]},"properties":{"cellid":"47c6eff041a228f9","marker-color":"#ff9900","name":"Gym: De Boerderij","title":"Gym: De Boerderij","marker-size":"small","marker-symbol":"fire-station"}},{"type":"Feature","geometry":{"type":"Point","coordinates":[5.365854,51.712481]},"properties":{"cellid":"47c6efed95d47ec3","marker-color":"#ff9900","name":"Gym: De Frank Ligthart Toren -  't Kwekkeltje","title":"Gym: De Frank Ligthart Toren -  't Kwekkeltje","marker-size":"small","marker-symbol":"fire-station"}},{"type":"Feature","geometry":{"type":"Point","coordinates":[5.348897,51.722384]},"properties":{"cellid":"47c6efdb7a4eb323","marker-color":"#ff9900","name":"Gym: De Kelk","title":"Gym: De Kelk","marker-size":"small","marker-symbol":"fire-station"}},{"type":"Feature","geometry":{"type":"Point","coordinates":[5.368086,51.712672]},"properties":{"cellid":"47c6eff272b3efa1","marker-color":"#ff9900","name":"Gym: De Vrolijke Schutters","title":"Gym: De Vrolijke Schutters","marker-size":"small","marker-symbol":"fire-station"}},{"type":"Feature","geometry":{"type":"Point","coordinates":[5.353605,51.725341]},"properties":{"cellid":"47c6efde7f0a57b1","marker-color":"#ff9900","name":"Gym: De Wereld Kerstbal","title":"Gym: De Wereld Kerstbal","marker-size":"small","marker-symbol":"fire-station"}},{"type":"Feature","geometry":{"type":"Point","coordinates":[5.387011,51.709793]},"properties":{"cellid":"47c6e55dda6fb95d","marker-color":"#ff9900","name":"Gym: Het Kruipgat [kruipgat]","title":"Gym: Het Kruipgat [kruipgat]","marker-size":"small","marker-symbol":"fire-station"}},{"type":"Feature","geometry":{"type":"Point","coordinates":[5.355713,51.723468]},"properties":{"cellid":"47c6efdd8e8661d5","marker-color":"#ff9900","name":"Gym: Kinderboerderij 't Veldje","title":"Gym: Kinderboerderij 't Veldje","marker-size":"small","marker-symbol":"fire-station"}},{"type":"Feature","geometry":{"type":"Point","coordinates":[5.359768,51.703494]},"properties":{"cellid":"47c6ef91574d1dc9","marker-color":"#ff9900","name":"Gym: Kollergang","title":"Gym: Kollergang","marker-size":"small","marker-symbol":"fire-station"}},{"type":"Feature","geometry":{"type":"Point","coordinates":[5.353479,51.731424]},"properties":{"cellid":"47c6f0209111bf0f","marker-color":"#ff9900","name":"Gym: Playground Ariastraat","title":"Gym: Playground Ariastraat","marker-size":"small","marker-symbol":"fire-station"}},{"type":"Feature","geometry":{"type":"Point","coordinates":[5.349239,51.718645]},"properties":{"cellid":"47c6efc366d31461","marker-color":"#ff9900","name":"Gym: Playground Glijbaan","title":"Gym: Playground Glijbaan","marker-size":"small","marker-symbol":"fire-station"}},{"type":"Feature","geometry":{"type":"Point","coordinates":[5.382683,51.708517]},"properties":{"cellid":"47c6e55fd3afa343","marker-color":"#ff9900","name":"Gym: Rosmalen Church","title":"Gym: Rosmalen Church","marker-size":"small","marker-symbol":"fire-station"}},{"type":"Feature","geometry":{"type":"Point","coordinates":[5.363217,51.718502]},"properties":{"cellid":"47c6efef415c7031","marker-color":"#ff9900","name":"Gym: St. Lambertuskerk","title":"Gym: St. Lambertuskerk","marker-size":"small","marker-symbol":"fire-station"}},{"type":"Feature","geometry":{"type":"Point","coordinates":[5.369606,51.715361]},"properties":{"cellid":"47c6eff1bfbe3ee9","marker-color":"#ff9900","name":"Gym: Train Station Rosmalen","title":"Gym: Train Station Rosmalen","marker-size":"small","marker-symbol":"fire-station"}},{"type":"Feature","geometry":{"type":"Point","coordinates":[5.363421,51.719236]},"properties":{"cellid":"47c6efef5e91a63f","marker-color":"#ff9900","name":"Gym: War Monument","title":"Gym: War Monument","marker-size":"small","marker-symbol":"fire-station"}},{"type":"Feature","geometry":{"type":"Point","coordinates":[5.364662,51.719663]},"properties":{"cellid":"47c6efe5863a0b6f","marker-color":"#ff9900","name":"Gym: War Monument For The Welsh Devision","title":"Gym: War Monument For The Welsh Devision","marker-size":"small","marker-symbol":"fire-station"}},{"type":"Feature","geometry":{"type":"Point","coordinates":[5.338072,51.718277]},"properties":{"cellid":"47c6efce59e73485","marker-color":"#ff9900","name":"Gym: Weird Statue","title":"Gym: Weird Statue","marker-size":"small","marker-symbol":"fire-station"}},{"type":"Feature","geometry":{"type":"Point","coordinates":[5.348104,51.714252]},"properties":{"cellid":"47c6efc14d622aa1","marker-color":"#ff9900","name":"Gym: Windows","title":"Gym: Windows","marker-size":"small","marker-symbol":"fire-station"}},{"type":"Feature","geometry":{"type":"Point","coordinates":[5.369543,51.731462]},"properties":{"cellid":"47c6f01d3c2a9eed","marker-color":"#808080","name":"Unknown: Basket-; Hockey- en Voetbalveld De Sprong","title":"Unknown: Basket-; Hockey- en Voetbalveld De Sprong","marker-size":"small","marker-symbol":"marker-stroked"}},{"type":"Feature","geometry":{"type":"Point","coordinates":[5.349588,51.72078]},"properties":{"cellid":"47c6efdca8a5f027","marker-color":"#808080","name":"Unknown: Basketbal Field District52J","title":"Unknown: Basketbal Field District52J","marker-size":"small","marker-symbol":"marker-stroked"}},{"type":"Feature","geometry":{"type":"Point","coordinates":[5.367986,51.724953]},"properties":{"cellid":"47c6efe36748e2ad","marker-color":"#808080","name":"Unknown: Basketball Field Overlaet","title":"Unknown: Basketball Field Overlaet","marker-size":"small","marker-symbol":"marker-stroked"}},{"type":"Feature","geometry":{"type":"Point","coordinates":[5.330937,51.73543]},"properties":{"cellid":"47c6f1d4c05f4aa3","marker-color":"#808080","name":"Unknown: Berenklauw Playground","title":"Unknown: Berenklauw Playground","marker-size":"small","marker-symbol":"marker-stroked"}},{"type":"Feature","geometry":{"type":"Point","coordinates":[5.353503,51.718148]},"properties":{"cellid":"47c6efc2ece27e87","marker-color":"#808080","name":"Unknown: Beweegpunt 't Ven","title":"Unknown: Beweegpunt 't Ven","marker-size":"small","marker-symbol":"marker-stroked"}},{"type":"Feature","geometry":{"type":"Point","coordinates":[5.363337,51.718838]},"properties":{"cellid":"47c6efef4333c223","marker-color":"#808080","name":"Unknown: Bid Voor De Ziel Van","title":"Unknown: Bid Voor De Ziel Van","marker-size":"small","marker-symbol":"marker-stroked"}},{"type":"Feature","geometry":{"type":"Point","coordinates":[5.351693,51.72858]},"properties":{"cellid":"47c6efdf253b851d","marker-color":"#808080","name":"Unknown: Blue Slide","title":"Unknown: Blue Slide","marker-size":"small","marker-symbol":"marker-stroked"}},{"type":"Feature","geometry":{"type":"Point","coordinates":[5.393391,51.70308]},"properties":{"cellid":"47c6e568c7848bd9","marker-color":"#808080","name":"Unknown: Boerderij Eikenburg","title":"Unknown: Boerderij Eikenburg","marker-size":"small","marker-symbol":"marker-stroked"}},{"type":"Feature","geometry":{"type":"Point","coordinates":[5.350711,51.709429]},"properties":{"cellid":"47c6efbf80ca2259","marker-color":"#808080","name":"Unknown: Bridge Over Troubled Water","title":"Unknown: Bridge Over Troubled Water","marker-size":"small","marker-symbol":"marker-stroked"}},{"type":"Feature","geometry":{"type":"Point","coordinates":[5.366129,51.733525]},"properties":{"cellid":"47c6f01c39404db1","marker-color":"#808080","name":"Unknown: Butterfly Garden","title":"Unknown: Butterfly Garden","marker-size":"small","marker-symbol":"marker-stroked"}},{"type":"Feature","geometry":{"type":"Point","coordinates":[5.354375,51.729212]},"properties":{"cellid":"47c6efdf9f7a4f6f","marker-color":"#808080","name":"Unknown: Central Park Playground","title":"Unknown: Central Park Playground","marker-size":"small","marker-symbol":"marker-stroked"}},{"type":"Feature","geometry":{"type":"Point","coordinates":[5.36053,51.703263]},"properties":{"cellid":"47c6ef915d7158d9","marker-color":"#808080","name":"Unknown: Colourful Path","title":"Unknown: Colourful Path","marker-size":"small","marker-symbol":"marker-stroked"}},{"type":"Feature","geometry":{"type":"Point","coordinates":[5.328196,51.729378]},"properties":{"cellid":"47c6ee2af932ac7d","marker-color":"#808080","name":"Unknown: D'n As","title":"Unknown: D'n As","marker-size":"small","marker-symbol":"marker-stroked"}},{"type":"Feature","geometry":{"type":"Point","coordinates":[5.372803,51.73798]},"properties":{"cellid":"47c6f0052edb14af","marker-color":"#808080","name":"Unknown: Dauwkade Schommels","title":"Unknown: Dauwkade Schommels","marker-size":"small","marker-symbol":"marker-stroked"}},{"type":"Feature","geometry":{"type":"Point","coordinates":[5.363092,51.717168]},"properties":{"cellid":"47c6efef219d3efb","marker-color":"#808080","name":"Unknown: De Bouwvakker","title":"Unknown: De Bouwvakker","marker-size":"small","marker-symbol":"marker-stroked"}},{"type":"Feature","geometry":{"type":"Point","coordinates":[5.35381,51.733705]},"properties":{"cellid":"47c6f0211a2f77c3","marker-color":"#808080","name":"Unknown: De Groote Wielen Brug","title":"Unknown: De Groote Wielen Brug","marker-size":"small","marker-symbol":"marker-stroked"}},{"type":"Feature","geometry":{"type":"Point","coordinates":[5.375681,51.726799]},"properties":{"cellid":"47c6effc32e9f855","marker-color":"#808080","name":"Unknown: De Roshoeve","title":"Unknown: De Roshoeve","marker-size":"small","marker-symbol":"marker-stroked"}},{"type":"Feature","geometry":{"type":"Point","coordinates":[5.335319,51.733972]},"properties":{"cellid":"47c6f02affe55dff","marker-color":"#808080","name":"Unknown: De Zilveren Bol","title":"Unknown: De Zilveren Bol","marker-size":"small","marker-symbol":"marker-stroked"}},{"type":"Feature","geometry":{"type":"Point","coordinates":[5.370975,51.721581]},"properties":{"cellid":"47c6effae116c883","marker-color":"#808080","name":"Unknown: Den kromme hoek","title":"Unknown: Den kromme hoek","marker-size":"small","marker-symbol":"marker-stroked"}},{"type":"Feature","geometry":{"type":"Point","coordinates":[5.350142,51.72042]},"properties":{"cellid":"47c6efdcb22f6da3","marker-color":"#808080","name":"Unknown: District 52 J","title":"Unknown: District 52 J","marker-size":"small","marker-symbol":"marker-stroked"}},{"type":"Feature","geometry":{"type":"Point","coordinates":[5.334238,51.72988]},"properties":{"cellid":"47c6efd50b9037bd","marker-color":"#808080","name":"Unknown: Dorsvlegel","title":"Unknown: Dorsvlegel","marker-size":"small","marker-symbol":"marker-stroked"}},{"type":"Feature","geometry":{"type":"Point","coordinates":[5.362094,51.727056]},"properties":{"cellid":"47c6efe1730f3919","marker-color":"#808080","name":"Unknown: Dovely Building","title":"Unknown: Dovely Building","marker-size":"small","marker-symbol":"marker-stroked"}},{"type":"Feature","geometry":{"type":"Point","coordinates":[5.383431,51.706079]},"properties":{"cellid":"47c6e560ef855655","marker-color":"#808080","name":"Unknown: Ereplek voor een kloosterorde","title":"Unknown: Ereplek voor een kloosterorde","marker-size":"small","marker-symbol":"marker-stroked"}},{"type":"Feature","geometry":{"type":"Point","coordinates":[5.363691,51.719899]},"properties":{"cellid":"47c6efe5f36b8ef1","marker-color":"#808080","name":"Unknown: Fietsen Doe Je In Brabant 93","title":"Unknown: Fietsen Doe Je In Brabant 93","marker-size":"small","marker-symbol":"marker-stroked"}},{"type":"Feature","geometry":{"type":"Point","coordinates":[5.385857,51.704038]},"properties":{"cellid":"47c6e566c9bfcc6f","marker-color":"#808080","name":"Unknown: Fietsen Doe Je In Brabant 94","title":"Unknown: Fietsen Doe Je In Brabant 94","marker-size":"small","marker-symbol":"marker-stroked"}},{"type":"Feature","geometry":{"type":"Point","coordinates":[5.357732,51.724871]},"properties":{"cellid":"47c6efe74c64032b","marker-color":"#808080","name":"Unknown: Fietsen Doe Je In Brabant Knpt 92","title":"Unknown: Fietsen Doe Je In Brabant Knpt 92","marker-size":"small","marker-symbol":"marker-stroked"}},{"type":"Feature","geometry":{"type":"Point","coordinates":[5.374016,51.714921]},"properties":{"cellid":"47c6eff14a366e91","marker-color":"#808080","name":"Unknown: Girl Reading Hazelaar","title":"Unknown: Girl Reading Hazelaar","marker-size":"small","marker-symbol":"marker-stroked"}},{"type":"Feature","geometry":{"type":"Point","coordinates":[5.353789,51.712267]},"properties":{"cellid":"47c6efc1d472abe1","marker-color":"#808080","name":"Unknown: Glijbaan Tuinstraat","title":"Unknown: Glijbaan Tuinstraat","marker-size":"small","marker-symbol":"marker-stroked"}},{"type":"Feature","geometry":{"type":"Point","coordinates":[5.362653,51.714186]},"properties":{"cellid":"47c6efec1fed05fd","marker-color":"#808080","name":"Unknown: Golden Lion Afhaal Keyzer Palace","title":"Unknown: Golden Lion Afhaal Keyzer Palace","marker-size":"small","marker-symbol":"marker-stroked"}},{"type":"Feature","geometry":{"type":"Point","coordinates":[5.362251,51.714075]},"properties":{"cellid":"47c6efec1c2f4215","marker-color":"#808080","name":"Unknown: Golden Lions of Keyzer Palace","title":"Unknown: Golden Lions of Keyzer Palace","marker-size":"small","marker-symbol":"marker-stroked"}},{"type":"Feature","geometry":{"type":"Point","coordinates":[5.361852,51.703385]},"properties":{"cellid":"47c6ef917bffb87d","marker-color":"#808080","name":"Unknown: Groene Poort Van Den Bosch","title":"Unknown: Groene Poort Van Den Bosch","marker-size":"small","marker-symbol":"marker-stroked"}},{"type":"Feature","geometry":{"type":"Point","coordinates":[5.363518,51.735236]},"properties":{"cellid":"47c6f01eb57c67b1","marker-color":"#808080","name":"Unknown: Groote Wielen Plas","title":"Unknown: Groote Wielen Plas","marker-size":"small","marker-symbol":"marker-stroked"}},{"type":"Feature","geometry":{"type":"Point","coordinates":[5.330706,51.730357]},"properties":{"cellid":"47c6ee2ab7be9f53","marker-color":"#808080","name":"Unknown: Hark","title":"Unknown: Hark","marker-size":"small","marker-symbol":"marker-stroked"}},{"type":"Feature","geometry":{"type":"Point","coordinates":[5.365165,51.736202]},"properties":{"cellid":"47c6f01958e7eb37","marker-color":"#808080","name":"Unknown: Herdenkingsbeeldje","title":"Unknown: Herdenkingsbeeldje","marker-size":"small","marker-symbol":"marker-stroked"}},{"type":"Feature","geometry":{"type":"Point","coordinates":[5.380545,51.709688]},"properties":{"cellid":"47c6e55f8dba98bd","marker-color":"#808080","name":"Unknown: Het Rosmalense Wiel","title":"Unknown: Het Rosmalense Wiel","marker-size":"small","marker-symbol":"marker-stroked"}},{"type":"Feature","geometry":{"type":"Point","coordinates":[5.379813,51.712196]},"properties":{"cellid":"47c6eff5f33a7c3b","marker-color":"#808080","name":"Unknown: Hockeyveld Oude baan","title":"Unknown: Hockeyveld Oude baan","marker-size":"small","marker-symbol":"marker-stroked"}},{"type":"Feature","geometry":{"type":"Point","coordinates":[5.363397,51.718182]},"properties":{"cellid":"47c6efef3ff5abef","marker-color":"#808080","name":"Unknown: Hoeksteen","title":"Unknown: Hoeksteen","marker-size":"small","marker-symbol":"marker-stroked"}},{"type":"Feature","geometry":{"type":"Point","coordinates":[5.391198,51.7083]},"properties":{"cellid":"47c6e55d5d365cf3","marker-color":"#808080","name":"Unknown: Hooge Heide","title":"Unknown: Hooge Heide","marker-size":"small","marker-symbol":"marker-stroked"}},{"type":"Feature","geometry":{"type":"Point","coordinates":[5.383929,51.712142]},"properties":{"cellid":"47c6e55edef4fb1f","marker-color":"#808080","name":"Unknown: Hooge Heide","title":"Unknown: Hooge Heide","marker-size":"small","marker-symbol":"marker-stroked"}},{"type":"Feature","geometry":{"type":"Point","coordinates":[5.390899,51.717743]},"properties":{"cellid":"47c6e55a7c86bf87","marker-color":"#808080","name":"Unknown: Hooge Heide - Infobord [infobord]","title":"Unknown: Hooge Heide - Infobord [infobord]","marker-size":"small","marker-symbol":"marker-stroked"}},{"type":"Feature","geometry":{"type":"Point","coordinates":[5.376811,51.726222]},"properties":{"cellid":"47c6effe8339a9a3","marker-color":"#808080","name":"Unknown: Ijzeren Tulpen","title":"Unknown: Ijzeren Tulpen","marker-size":"small","marker-symbol":"marker-stroked"}},{"type":"Feature","geometry":{"type":"Point","coordinates":[5.366392,51.735883]},"properties":{"cellid":"47c6f01bf1e0a981","marker-color":"#808080","name":"Unknown: In Love With my own Reality","title":"Unknown: In Love With my own Reality","marker-size":"small","marker-symbol":"marker-stroked"}},{"type":"Feature","geometry":{"type":"Point","coordinates":[5.375316,51.736019]},"properties":{"cellid":"47c6f0046056da9f","marker-color":"#808080","name":"Unknown: Info Point at the Swamp","title":"Unknown: Info Point at the Swamp","marker-size":"small","marker-symbol":"marker-stroked"}},{"type":"Feature","geometry":{"type":"Point","coordinates":[5.378672,51.734989]},"properties":{"cellid":"47c6f006ac04a0d3","marker-color":"#808080","name":"Unknown: Info Point At The Swamp 2","title":"Unknown: Info Point At The Swamp 2","marker-size":"small","marker-symbol":"marker-stroked"}},{"type":"Feature","geometry":{"type":"Point","coordinates":[5.351375,51.71274]},"properties":{"cellid":"47c6efc1af4d2873","marker-color":"#808080","name":"Unknown: Kanaalpark Empelseweg","title":"Unknown: Kanaalpark Empelseweg","marker-size":"small","marker-symbol":"marker-stroked"}},{"type":"Feature","geometry":{"type":"Point","coordinates":[5.347396,51.714555]},"properties":{"cellid":"47c6efc6af2164b5","marker-color":"#808080","name":"Unknown: Kanaalpark Landgoederen","title":"Unknown: Kanaalpark Landgoederen","marker-size":"small","marker-symbol":"marker-stroked"}},{"type":"Feature","geometry":{"type":"Point","coordinates":[5.352175,51.709278]},"properties":{"cellid":"47c6efbff4531b1d","marker-color":"#808080","name":"Unknown: Kanaalpark Midden","title":"Unknown: Kanaalpark Midden","marker-size":"small","marker-symbol":"marker-stroked"}},{"type":"Feature","geometry":{"type":"Point","coordinates":[5.326992,51.730685]},"properties":{"cellid":"47c6ee2a695c470d","marker-color":"#808080","name":"Unknown: Kerk in Empel","title":"Unknown: Kerk in Empel","marker-size":"small","marker-symbol":"marker-stroked"}},{"type":"Feature","geometry":{"type":"Point","coordinates":[5.327169,51.733047]},"properties":{"cellid":"47c6f1d5957cf80d","marker-color":"#808080","name":"Unknown: Kinderboerderij","title":"Unknown: Kinderboerderij","marker-size":"small","marker-symbol":"marker-stroked"}},{"type":"Feature","geometry":{"type":"Point","coordinates":[5.360683,51.730982]},"properties":{"cellid":"47c6f01fcdc4bf27","marker-color":"#808080","name":"Unknown: Klauter rek","title":"Unknown: Klauter rek","marker-size":"small","marker-symbol":"marker-stroked"}},{"type":"Feature","geometry":{"type":"Point","coordinates":[5.368687,51.733061]},"properties":{"cellid":"47c6f01cfaec891f","marker-color":"#808080","name":"Unknown: Klim Toestel","title":"Unknown: Klim Toestel","marker-size":"small","marker-symbol":"marker-stroked"}},{"type":"Feature","geometry":{"type":"Point","coordinates":[5.363805,51.734984]},"properties":{"cellid":"47c6f01eb6babb33","marker-color":"#808080","name":"Unknown: Koningslinde 30-4-2013","title":"Unknown: Koningslinde 30-4-2013","marker-size":"small","marker-symbol":"marker-stroked"}},{"type":"Feature","geometry":{"type":"Point","coordinates":[5.344768,51.719165]},"properties":{"cellid":"47c6efc53d254b8f","marker-color":"#808080","name":"Unknown: Kunstwerk Empel-Rosmalen","title":"Unknown: Kunstwerk Empel-Rosmalen","marker-size":"small","marker-symbol":"marker-stroked"}},{"type":"Feature","geometry":{"type":"Point","coordinates":[5.362787,51.70825]},"properties":{"cellid":"47c6ef9325e24929","marker-color":"#808080","name":"Unknown: Laurentius Kerk","title":"Unknown: Laurentius Kerk","marker-size":"small","marker-symbol":"marker-stroked"}},{"type":"Feature","geometry":{"type":"Point","coordinates":[5.367902,51.737454]},"properties":{"cellid":"47c6f01bb18dd22d","marker-color":"#808080","name":"Unknown: Little Castle","title":"Unknown: Little Castle","marker-size":"small","marker-symbol":"marker-stroked"}},{"type":"Feature","geometry":{"type":"Point","coordinates":[5.331929,51.736963]},"properties":{"cellid":"47c6f1d3579c2827","marker-color":"#808080","name":"Unknown: Locomotief","title":"Unknown: Locomotief","marker-size":"small","marker-symbol":"marker-stroked"}},{"type":"Feature","geometry":{"type":"Point","coordinates":[5.368829,51.72738]},"properties":{"cellid":"47c6efe2dee147cb","marker-color":"#808080","name":"Unknown: Locomotive Statue","title":"Unknown: Locomotive Statue","marker-size":"small","marker-symbol":"marker-stroked"}},{"type":"Feature","geometry":{"type":"Point","coordinates":[5.382645,51.70876]},"properties":{"cellid":"47c6e55fcdf20737","marker-color":"#808080","name":"Unknown: Lourdes in Brabant","title":"Unknown: Lourdes in Brabant","marker-size":"small","marker-symbol":"marker-stroked"}},{"type":"Feature","geometry":{"type":"Point","coordinates":[5.370206,51.721055]},"properties":{"cellid":"47c6effac37ce913","marker-color":"#808080","name":"Unknown: Luyckershofke Playground","title":"Unknown: Luyckershofke Playground","marker-size":"small","marker-symbol":"marker-stroked"}},{"type":"Feature","geometry":{"type":"Point","coordinates":[5.362243,51.734029]},"properties":{"cellid":"47c6f01ee79fe583","marker-color":"#808080","name":"Unknown: Mini Stonehedge","title":"Unknown: Mini Stonehedge","marker-size":"small","marker-symbol":"marker-stroked"}},{"type":"Feature","geometry":{"type":"Point","coordinates":[5.382678,51.707425]},"properties":{"cellid":"47c6e5607d51a923","marker-color":"#808080","name":"Unknown: Mozaïek bankje Lijsterbeslaan","title":"Unknown: Mozaïek bankje Lijsterbeslaan","marker-size":"small","marker-symbol":"marker-stroked"}},{"type":"Feature","geometry":{"type":"Point","coordinates":[5.381512,51.708531]},"properties":{"cellid":"47c6e55fdc4a50af","marker-color":"#808080","name":"Unknown: naam die om uitleg vraagt","title":"Unknown: naam die om uitleg vraagt","marker-size":"small","marker-symbol":"marker-stroked"}},{"type":"Feature","geometry":{"type":"Point","coordinates":[5.328957,51.732885]},"properties":{"cellid":"47c6f1d57497004b","marker-color":"#808080","name":"Unknown: Old Timer","title":"Unknown: Old Timer","marker-size":"small","marker-symbol":"marker-stroked"}},{"type":"Feature","geometry":{"type":"Point","coordinates":[5.362819,51.715181]},"properties":{"cellid":"47c6efeebdebd7bb","marker-color":"#808080","name":"Unknown: Onder Dak Monument","title":"Unknown: Onder Dak Monument","marker-size":"small","marker-symbol":"marker-stroked"}},{"type":"Feature","geometry":{"type":"Point","coordinates":[5.381823,51.70881]},"properties":{"cellid":"47c6e55fc4bbae5d","marker-color":"#808080","name":"Unknown: Opvallende Vingerwijzing [vingerwijzing]","title":"Unknown: Opvallende Vingerwijzing [vingerwijzing]","marker-size":"small","marker-symbol":"marker-stroked"}},{"type":"Feature","geometry":{"type":"Point","coordinates":[5.367642,51.726116]},"properties":{"cellid":"47c6efe31250d3f3","marker-color":"#808080","name":"Unknown: Orange T","title":"Unknown: Orange T","marker-size":"small","marker-symbol":"marker-stroked"}},{"type":"Feature","geometry":{"type":"Point","coordinates":[5.370099,51.715854]},"properties":{"cellid":"47c6eff1ba12e9b9","marker-color":"#808080","name":"Unknown: Perron 3 Statue","title":"Unknown: Perron 3 Statue","marker-size":"small","marker-symbol":"marker-stroked"}},{"type":"Feature","geometry":{"type":"Point","coordinates":[5.370272,51.723904]},"properties":{"cellid":"47c6effb5012bf7f","marker-color":"#808080","name":"Unknown: Petting Zoo Beestenboel","title":"Unknown: Petting Zoo Beestenboel","marker-size":"small","marker-symbol":"marker-stroked"}},{"type":"Feature","geometry":{"type":"Point","coordinates":[5.365956,51.714492]},"properties":{"cellid":"47c6efee73425e6f","marker-color":"#808080","name":"Unknown: Petting Zoo Geitenbrij","title":"Unknown: Petting Zoo Geitenbrij","marker-size":"small","marker-symbol":"marker-stroked"}},{"type":"Feature","geometry":{"type":"Point","coordinates":[5.359687,51.731697]},"properties":{"cellid":"47c6f01fbfbacdfb","marker-color":"#808080","name":"Unknown: Playground Bronmospad","title":"Unknown: Playground Bronmospad","marker-size":"small","marker-symbol":"marker-stroked"}},{"type":"Feature","geometry":{"type":"Point","coordinates":[5.354683,51.736165]},"properties":{"cellid":"47c6f023d0a41c97","marker-color":"#808080","name":"Unknown: Playground CAMPUS","title":"Unknown: Playground CAMPUS","marker-size":"small","marker-symbol":"marker-stroked"}},{"type":"Feature","geometry":{"type":"Point","coordinates":[5.366114,51.736664]},"properties":{"cellid":"47c6f01bdd14ea0b","marker-color":"#808080","name":"Unknown: Playground Canal View","title":"Unknown: Playground Canal View","marker-size":"small","marker-symbol":"marker-stroked"}},{"type":"Feature","geometry":{"type":"Point","coordinates":[5.349606,51.729758]},"properties":{"cellid":"47c6efd8bc2378fd","marker-color":"#808080","name":"Unknown: Playground Cantatehof","title":"Unknown: Playground Cantatehof","marker-size":"small","marker-symbol":"marker-stroked"}},{"type":"Feature","geometry":{"type":"Point","coordinates":[5.364481,51.725809]},"properties":{"cellid":"47c6efe3e94399ef","marker-color":"#808080","name":"Unknown: Playground Ceelen","title":"Unknown: Playground Ceelen","marker-size":"small","marker-symbol":"marker-stroked"}},{"type":"Feature","geometry":{"type":"Point","coordinates":[5.364377,51.72163]},"properties":{"cellid":"47c6efe5b6fe919d","marker-color":"#808080","name":"Unknown: Playground Cerber","title":"Unknown: Playground Cerber","marker-size":"small","marker-symbol":"marker-stroked"}},{"type":"Feature","geometry":{"type":"Point","coordinates":[5.3526,51.732789]},"properties":{"cellid":"47c6f020dbb14507","marker-color":"#808080","name":"Unknown: Playground Chanso","title":"Unknown: Playground Chanso","marker-size":"small","marker-symbol":"marker-stroked"}},{"type":"Feature","geometry":{"type":"Point","coordinates":[5.364926,51.722169]},"properties":{"cellid":"47c6efe44d3d592d","marker-color":"#808080","name":"Unknown: Playground Heliusstraat","title":"Unknown: Playground Heliusstraat","marker-size":"small","marker-symbol":"marker-stroked"}},{"type":"Feature","geometry":{"type":"Point","coordinates":[5.369739,51.718678]},"properties":{"cellid":"47c6eff00dd85a81","marker-color":"#808080","name":"Unknown: Playground Hondsberg","title":"Unknown: Playground Hondsberg","marker-size":"small","marker-symbol":"marker-stroked"}},{"type":"Feature","geometry":{"type":"Point","coordinates":[5.369622,51.71906]},"properties":{"cellid":"47c6eff00900b169","marker-color":"#808080","name":"Unknown: Playground Hondsberg","title":"Unknown: Playground Hondsberg","marker-size":"small","marker-symbol":"marker-stroked"}},{"type":"Feature","geometry":{"type":"Point","coordinates":[5.357208,51.721066]},"properties":{"cellid":"47c6efe7eb3a3527","marker-color":"#808080","name":"Unknown: Playground Jachthoorn","title":"Unknown: Playground Jachthoorn","marker-size":"small","marker-symbol":"marker-stroked"}},{"type":"Feature","geometry":{"type":"Point","coordinates":[5.35546,51.72121]},"properties":{"cellid":"47c6efdd6754d027","marker-color":"#808080","name":"Unknown: Playground Kooiker","title":"Unknown: Playground Kooiker","marker-size":"small","marker-symbol":"marker-stroked"}},{"type":"Feature","geometry":{"type":"Point","coordinates":[5.366483,51.724092]},"properties":{"cellid":"47c6efe4864b01d9","marker-color":"#808080","name":"Unknown: Playground Ley","title":"Unknown: Playground Ley","marker-size":"small","marker-symbol":"marker-stroked"}},{"type":"Feature","geometry":{"type":"Point","coordinates":[5.376081,51.714603]},"properties":{"cellid":"47c6eff6967b1183","marker-color":"#808080","name":"Unknown: Playground Maaslandhoeve","title":"Unknown: Playground Maaslandhoeve","marker-size":"small","marker-symbol":"marker-stroked"}},{"type":"Feature","geometry":{"type":"Point","coordinates":[5.372444,51.727979]},"properties":{"cellid":"47c6effd1142b86b","marker-color":"#808080","name":"Unknown: Playground Overlaet","title":"Unknown: Playground Overlaet","marker-size":"small","marker-symbol":"marker-stroked"}},{"type":"Feature","geometry":{"type":"Point","coordinates":[5.364821,51.732853]},"properties":{"cellid":"47c6f01c2a59840f","marker-color":"#808080","name":"Unknown: playground Page","title":"Unknown: playground Page","marker-size":"small","marker-symbol":"marker-stroked"}},{"type":"Feature","geometry":{"type":"Point","coordinates":[5.35058,51.732946]},"properties":{"cellid":"47c6f02725ce1d5d","marker-color":"#808080","name":"Unknown: Playground Rapsodieweg","title":"Unknown: Playground Rapsodieweg","marker-size":"small","marker-symbol":"marker-stroked"}},{"type":"Feature","geometry":{"type":"Point","coordinates":[5.373675,51.736785]},"properties":{"cellid":"47c6f004e8246efb","marker-color":"#808080","name":"Unknown: Playground Rietdam","title":"Unknown: Playground Rietdam","marker-size":"small","marker-symbol":"marker-stroked"}},{"type":"Feature","geometry":{"type":"Point","coordinates":[5.35079,51.718984]},"properties":{"cellid":"47c6efc33eef095f","marker-color":"#808080","name":"Unknown: Playground Rosmalen","title":"Unknown: Playground Rosmalen","marker-size":"small","marker-symbol":"marker-stroked"}},{"type":"Feature","geometry":{"type":"Point","coordinates":[5.364897,51.716536]},"properties":{"cellid":"47c6efee55ea3369","marker-color":"#808080","name":"Unknown: Playground ROSMALEN","title":"Unknown: Playground ROSMALEN","marker-size":"small","marker-symbol":"marker-stroked"}},{"type":"Feature","geometry":{"type":"Point","coordinates":[5.359312,51.720847]},"properties":{"cellid":"47c6efe634537e1b","marker-color":"#808080","name":"Unknown: Playground Ship","title":"Unknown: Playground Ship","marker-size":"small","marker-symbol":"marker-stroked"}},{"type":"Feature","geometry":{"type":"Point","coordinates":[5.377718,51.712011]},"properties":{"cellid":"47c6eff5b7179dad","marker-color":"#808080","name":"Unknown: Playground Sparrenhoeven","title":"Unknown: Playground Sparrenhoeven","marker-size":"small","marker-symbol":"marker-stroked"}},{"type":"Feature","geometry":{"type":"Point","coordinates":[5.361791,51.722642]},"properties":{"cellid":"47c6efe68f402205","marker-color":"#808080","name":"Unknown: Playground Terpeborch","title":"Unknown: Playground Terpeborch","marker-size":"small","marker-symbol":"marker-stroked"}},{"type":"Feature","geometry":{"type":"Point","coordinates":[5.368962,51.725438]},"properties":{"cellid":"47c6efe3458bf731","marker-color":"#808080","name":"Unknown: Playgroup Borch Oid","title":"Unknown: Playgroup Borch Oid","marker-size":"small","marker-symbol":"marker-stroked"}},{"type":"Feature","geometry":{"type":"Point","coordinates":[5.37079,51.725813]},"properties":{"cellid":"47c6effcc7f30ed5","marker-color":"#808080","name":"Unknown: Potloden","title":"Unknown: Potloden","marker-size":"small","marker-symbol":"marker-stroked"}},{"type":"Feature","geometry":{"type":"Point","coordinates":[5.327084,51.728355]},"properties":{"cellid":"47c6ee2ba572c951","marker-color":"#808080","name":"Unknown: Pottenbakker","title":"Unknown: Pottenbakker","marker-size":"small","marker-symbol":"marker-stroked"}},{"type":"Feature","geometry":{"type":"Point","coordinates":[5.370305,51.728517]},"properties":{"cellid":"47c6efe2b541ecc5","marker-color":"#808080","name":"Unknown: Projectontwikkelaars bank Overlaet","title":"Unknown: Projectontwikkelaars bank Overlaet","marker-size":"small","marker-symbol":"marker-stroked"}},{"type":"Feature","geometry":{"type":"Point","coordinates":[5.367712,51.724181]},"properties":{"cellid":"47c6efe4991fca87","marker-color":"#808080","name":"Unknown: Purple T","title":"Unknown: Purple T","marker-size":"small","marker-symbol":"marker-stroked"}},{"type":"Feature","geometry":{"type":"Point","coordinates":[5.363608,51.732642]},"properties":{"cellid":"47c6f01e6260090b","marker-color":"#808080","name":"Unknown: Quekkel park","title":"Unknown: Quekkel park","marker-size":"small","marker-symbol":"marker-stroked"}},{"type":"Feature","geometry":{"type":"Point","coordinates":[5.371307,51.733028]},"properties":{"cellid":"47c6f0032d5640af","marker-color":"#808080","name":"Unknown: Rioolgemaal Wijk De Groote Wielen","title":"Unknown: Rioolgemaal Wijk De Groote Wielen","marker-size":"small","marker-symbol":"marker-stroked"}},{"type":"Feature","geometry":{"type":"Point","coordinates":[5.36968,51.716198]},"properties":{"cellid":"47c6eff1b61c664b","marker-color":"#808080","name":"Unknown: Rosmalens Kunstwerk","title":"Unknown: Rosmalens Kunstwerk","marker-size":"small","marker-symbol":"marker-stroked"}},{"type":"Feature","geometry":{"type":"Point","coordinates":[5.357383,51.722001]},"properties":{"cellid":"47c6efe79916a773","marker-color":"#808080","name":"Unknown: Rubber Band","title":"Unknown: Rubber Band","marker-size":"small","marker-symbol":"marker-stroked"}},{"type":"Feature","geometry":{"type":"Point","coordinates":[5.367481,51.72905]},"properties":{"cellid":"47c6efe2891b3503","marker-color":"#808080","name":"Unknown: Skatepark Overlaet","title":"Unknown: Skatepark Overlaet","marker-size":"small","marker-symbol":"marker-stroked"}},{"type":"Feature","geometry":{"type":"Point","coordinates":[5.362513,51.712686]},"properties":{"cellid":"47c6efec41ebab33","marker-color":"#808080","name":"Unknown: Skatepark Rosmalen","title":"Unknown: Skatepark Rosmalen","marker-size":"small","marker-symbol":"marker-stroked"}},{"type":"Feature","geometry":{"type":"Point","coordinates":[5.367883,51.727851]},"properties":{"cellid":"47c6efe2e5448caf","marker-color":"#808080","name":"Unknown: Skytower","title":"Unknown: Skytower","marker-size":"small","marker-symbol":"marker-stroked"}},{"type":"Feature","geometry":{"type":"Point","coordinates":[5.334194,51.738853]},"properties":{"cellid":"47c6f02cdb7617d9","marker-color":"#808080","name":"Unknown: Sluis Empel","title":"Unknown: Sluis Empel","marker-size":"small","marker-symbol":"marker-stroked"}},{"type":"Feature","geometry":{"type":"Point","coordinates":[5.383763,51.708953]},"properties":{"cellid":"47c6e55e30ba14ab","marker-color":"#808080","name":"Unknown: Soccerfield Meerlaer","title":"Unknown: Soccerfield Meerlaer","marker-size":"small","marker-symbol":"marker-stroked"}},{"type":"Feature","geometry":{"type":"Point","coordinates":[5.365123,51.731796]},"properties":{"cellid":"47c6f01ddb05b151","marker-color":"#808080","name":"Unknown: Speel Toestellen","title":"Unknown: Speel Toestellen","marker-size":"small","marker-symbol":"marker-stroked"}},{"type":"Feature","geometry":{"type":"Point","coordinates":[5.375657,51.71514]},"properties":{"cellid":"47c6eff6c0d9d0df","marker-color":"#808080","name":"Unknown: Speeltoestellen Sluiskeshoeven","title":"Unknown: Speeltoestellen Sluiskeshoeven","marker-size":"small","marker-symbol":"marker-stroked"}},{"type":"Feature","geometry":{"type":"Point","coordinates":[5.37171,51.728761]},"properties":{"cellid":"47c6effd43f0a253","marker-color":"#808080","name":"Unknown: Speeltuin Anna Frankstraat","title":"Unknown: Speeltuin Anna Frankstraat","marker-size":"small","marker-symbol":"marker-stroked"}},{"type":"Feature","geometry":{"type":"Point","coordinates":[5.37171,51.728761]},"properties":{"cellid":"47c6effd43f0a253","marker-color":"#808080","name":"Unknown: Speeltuin Anne Frankstraat","title":"Unknown: Speeltuin Anne Frankstraat","marker-size":"small","marker-symbol":"marker-stroked"}},{"type":"Feature","geometry":{"type":"Point","coordinates":[5.360373,51.707313]},"properties":{"cellid":"47c6ef9365b3052f","marker-color":"#808080","name":"Unknown: Speeltuin Bisschop Bekkerslaan","title":"Unknown: Speeltuin Bisschop Bekkerslaan","marker-size":"small","marker-symbol":"marker-stroked"}},{"type":"Feature","geometry":{"type":"Point","coordinates":[5.384979,51.71818]},"properties":{"cellid":"47c6e559d37c226f","marker-color":"#808080","name":"Unknown: Speeltuin Brabanthoeven","title":"Unknown: Speeltuin Brabanthoeven","marker-size":"small","marker-symbol":"marker-stroked"}},{"type":"Feature","geometry":{"type":"Point","coordinates":[5.373564,51.727707]},"properties":{"cellid":"47c6effda7f2333f","marker-color":"#808080","name":"Unknown: Speeltuin De Doorsteek","title":"Unknown: Speeltuin De Doorsteek","marker-size":"small","marker-symbol":"marker-stroked"}},{"type":"Feature","geometry":{"type":"Point","coordinates":[5.375004,51.708918]},"properties":{"cellid":"47c6eff4c855b6c9","marker-color":"#808080","name":"Unknown: Speeltuin Heirust","title":"Unknown: Speeltuin Heirust","marker-size":"small","marker-symbol":"marker-stroked"}},{"type":"Feature","geometry":{"type":"Point","coordinates":[5.368139,51.72296]},"properties":{"cellid":"47c6efe4c6af100b","marker-color":"#808080","name":"Unknown: Speeltuin Herculesstraat","title":"Unknown: Speeltuin Herculesstraat","marker-size":"small","marker-symbol":"marker-stroked"}},{"type":"Feature","geometry":{"type":"Point","coordinates":[5.373912,51.726988]},"properties":{"cellid":"47c6effdacc97791","marker-color":"#808080","name":"Unknown: Speeltuin Max Euweatraat","title":"Unknown: Speeltuin Max Euweatraat","marker-size":"small","marker-symbol":"marker-stroked"}},{"type":"Feature","geometry":{"type":"Point","coordinates":[5.355169,51.718353]},"properties":{"cellid":"47c6efc29e4533ad","marker-color":"#808080","name":"Unknown: Speeltuin Mimosastraat","title":"Unknown: Speeltuin Mimosastraat","marker-size":"small","marker-symbol":"marker-stroked"}},{"type":"Feature","geometry":{"type":"Point","coordinates":[5.357008,51.714298]},"properties":{"cellid":"47c6efea289da543","marker-color":"#808080","name":"Unknown: Speeltuin Orchideeënstraat","title":"Unknown: Speeltuin Orchideeënstraat","marker-size":"small","marker-symbol":"marker-stroked"}},{"type":"Feature","geometry":{"type":"Point","coordinates":[5.378834,51.713686]},"properties":{"cellid":"47c6eff674fdf949","marker-color":"#808080","name":"Unknown: Speeltuin Tielekeshoeven","title":"Unknown: Speeltuin Tielekeshoeven","marker-size":"small","marker-symbol":"marker-stroked"}},{"type":"Feature","geometry":{"type":"Point","coordinates":[5.333515,51.732086]},"properties":{"cellid":"47c6f02a9824347b","marker-color":"#808080","name":"Unknown: Speeltuintje","title":"Unknown: Speeltuintje","marker-size":"small","marker-symbol":"marker-stroked"}},{"type":"Feature","geometry":{"type":"Point","coordinates":[5.335337,51.719716]},"properties":{"cellid":"47c6efcde6f3325d","marker-color":"#808080","name":"Unknown: Spelen Bij De Clown Rosmalen","title":"Unknown: Spelen Bij De Clown Rosmalen","marker-size":"small","marker-symbol":"marker-stroked"}},{"type":"Feature","geometry":{"type":"Point","coordinates":[5.329975,51.737227]},"properties":{"cellid":"47c6f1d37c758d5b","marker-color":"#808080","name":"Unknown: Spinnenweb","title":"Unknown: Spinnenweb","marker-size":"small","marker-symbol":"marker-stroked"}},{"type":"Feature","geometry":{"type":"Point","coordinates":[5.330603,51.735072]},"properties":{"cellid":"47c6f1d4e9cc28dd","marker-color":"#808080","name":"Unknown: Stalen Ring","title":"Unknown: Stalen Ring","marker-size":"small","marker-symbol":"marker-stroked"}},{"type":"Feature","geometry":{"type":"Point","coordinates":[5.365645,51.708911]},"properties":{"cellid":"47c6efed4d3d3cdb","marker-color":"#808080","name":"Unknown: Stapel Stenen","title":"Unknown: Stapel Stenen","marker-size":"small","marker-symbol":"marker-stroked"}},{"type":"Feature","geometry":{"type":"Point","coordinates":[5.375196,51.703905]},"properties":{"cellid":"47c6ef8bcdb73203","marker-color":"#808080","name":"Unknown: Statue at Coudewater sanatoriu","title":"Unknown: Statue at Coudewater sanatoriu","marker-size":"small","marker-symbol":"marker-stroked"}},{"type":"Feature","geometry":{"type":"Point","coordinates":[5.369533,51.716004]},"properties":{"cellid":"47c6eff1c815a75d","marker-color":"#808080","name":"Unknown: Statue Of Unity","title":"Unknown: Statue Of Unity","marker-size":"small","marker-symbol":"marker-stroked"}},{"type":"Feature","geometry":{"type":"Point","coordinates":[5.355817,51.723852]},"properties":{"cellid":"47c6efddf32e26b7","marker-color":"#808080","name":"Unknown: Stenen Bankjes","title":"Unknown: Stenen Bankjes","marker-size":"small","marker-symbol":"marker-stroked"}},{"type":"Feature","geometry":{"type":"Point","coordinates":[5.339192,51.717902]},"properties":{"cellid":"47c6efcf00b9a863","marker-color":"#808080","name":"Unknown: Strange Statue","title":"Unknown: Strange Statue","marker-size":"small","marker-symbol":"marker-stroked"}},{"type":"Feature","geometry":{"type":"Point","coordinates":[5.371488,51.707023]},"properties":{"cellid":"47c6ef8c94392515","marker-color":"#808080","name":"Unknown: Sundial; Rosmalen","title":"Unknown: Sundial; Rosmalen","marker-size":"small","marker-symbol":"marker-stroked"}},{"type":"Feature","geometry":{"type":"Point","coordinates":[5.358263,51.723802]},"properties":{"cellid":"47c6efe73e486bf3","marker-color":"#808080","name":"Unknown: Swing Rosmalen","title":"Unknown: Swing Rosmalen","marker-size":"small","marker-symbol":"marker-stroked"}},{"type":"Feature","geometry":{"type":"Point","coordinates":[5.383041,51.707339]},"properties":{"cellid":"47c6e56088a4ca25","marker-color":"#808080","name":"Unknown: t Lijsterbosje maliskamp","title":"Unknown: t Lijsterbosje maliskamp","marker-size":"small","marker-symbol":"marker-stroked"}},{"type":"Feature","geometry":{"type":"Point","coordinates":[5.381144,51.70906]},"properties":{"cellid":"47c6e55fe971ec73","marker-color":"#808080","name":"Unknown: Tegenpolen van betekenis","title":"Unknown: Tegenpolen van betekenis","marker-size":"small","marker-symbol":"marker-stroked"}},{"type":"Feature","geometry":{"type":"Point","coordinates":[5.33295,51.731349]},"properties":{"cellid":"47c6efd55f19fa17","marker-color":"#808080","name":"Unknown: Telraam","title":"Unknown: Telraam","marker-size":"small","marker-symbol":"marker-stroked"}},{"type":"Feature","geometry":{"type":"Point","coordinates":[5.373659,51.712038]},"properties":{"cellid":"47c6eff389948a63","marker-color":"#808080","name":"Unknown: Tennisvereniging Rosmalen","title":"Unknown: Tennisvereniging Rosmalen","marker-size":"small","marker-symbol":"marker-stroked"}},{"type":"Feature","geometry":{"type":"Point","coordinates":[5.362226,51.708338]},"properties":{"cellid":"47c6ef933078cc93","marker-color":"#808080","name":"Unknown: The Gears","title":"Unknown: The Gears","marker-size":"small","marker-symbol":"marker-stroked"}},{"type":"Feature","geometry":{"type":"Point","coordinates":[5.361535,51.710056]},"properties":{"cellid":"47c6efecbeaf5631","marker-color":"#808080","name":"Unknown: Traditional Windmill Rosmalen","title":"Unknown: Traditional Windmill Rosmalen","marker-size":"small","marker-symbol":"marker-stroked"}},{"type":"Feature","geometry":{"type":"Point","coordinates":[5.359297,51.71819]},"properties":{"cellid":"47c6efe8f2672f51","marker-color":"#808080","name":"Unknown: Vennehof Gedachteniskapel","title":"Unknown: Vennehof Gedachteniskapel","marker-size":"small","marker-symbol":"marker-stroked"}},{"type":"Feature","geometry":{"type":"Point","coordinates":[5.34886,51.731259]},"properties":{"cellid":"47c6f0276526e161","marker-color":"#808080","name":"Unknown: Vliegtuig Parashute Playground","title":"Unknown: Vliegtuig Parashute Playground","marker-size":"small","marker-symbol":"marker-stroked"}},{"type":"Feature","geometry":{"type":"Point","coordinates":[5.375071,51.740122]},"properties":{"cellid":"47c6f00562a90677","marker-color":"#808080","name":"Unknown: Vlinders In De Tuin","title":"Unknown: Vlinders In De Tuin","marker-size":"small","marker-symbol":"marker-stroked"}},{"type":"Feature","geometry":{"type":"Point","coordinates":[5.368897,51.713215]},"properties":{"cellid":"47c6eff217a13fb5","marker-color":"#808080","name":"Unknown: Vlinders Info Bord","title":"Unknown: Vlinders Info Bord","marker-size":"small","marker-symbol":"marker-stroked"}},{"type":"Feature","geometry":{"type":"Point","coordinates":[5.38183,51.707114]},"properties":{"cellid":"47c6e5606f550a31","marker-color":"#808080","name":"Unknown: Voetbal veld Milla de Kampenstraat","title":"Unknown: Voetbal veld Milla de Kampenstraat","marker-size":"small","marker-symbol":"marker-stroked"}},{"type":"Feature","geometry":{"type":"Point","coordinates":[5.364789,51.713302]},"properties":{"cellid":"47c6efedcefd118d","marker-color":"#808080","name":"Unknown: Voetbal- en Basketbalveld Rosmalen","title":"Unknown: Voetbal- en Basketbalveld Rosmalen","marker-size":"small","marker-symbol":"marker-stroked"}},{"type":"Feature","geometry":{"type":"Point","coordinates":[5.384587,51.718053]},"properties":{"cellid":"47c6e5582cfe3623","marker-color":"#808080","name":"Unknown: Voetbalveld Brabanthoeven","title":"Unknown: Voetbalveld Brabanthoeven","marker-size":"small","marker-symbol":"marker-stroked"}},{"type":"Feature","geometry":{"type":"Point","coordinates":[5.360024,51.71159]},"properties":{"cellid":"47c6efeb78e38233","marker-color":"#808080","name":"Unknown: Voetbalveld Rooseveltlaan","title":"Unknown: Voetbalveld Rooseveltlaan","marker-size":"small","marker-symbol":"marker-stroked"}},{"type":"Feature","geometry":{"type":"Point","coordinates":[5.382712,51.707225]},"properties":{"cellid":"47c6e56089d33ecf","marker-color":"#808080","name":"Unknown: Wat maakt Maliskamp","title":"Unknown: Wat maakt Maliskamp","marker-size":"small","marker-symbol":"marker-stroked"}},{"type":"Feature","geometry":{"type":"Point","coordinates":[5.344345,51.722356]},"properties":{"cellid":"47c6efda92765b7b","marker-color":"#808080","name":"Unknown: Watch Tower Rosmalen","title":"Unknown: Watch Tower Rosmalen","marker-size":"small","marker-symbol":"marker-stroked"}},{"type":"Feature","geometry":{"type":"Point","coordinates":[5.363725,51.717821]},"properties":{"cellid":"47c6efef16a20c17","marker-color":"#808080","name":"Unknown: Waterpomp","title":"Unknown: Waterpomp","marker-size":"small","marker-symbol":"marker-stroked"}},{"type":"Feature","geometry":{"type":"Point","coordinates":[5.362235,51.717859]},"properties":{"cellid":"47c6efef315b0fd7","marker-color":"#808080","name":"Unknown: Waterpomp Dorpsstraat","title":"Unknown: Waterpomp Dorpsstraat","marker-size":"small","marker-symbol":"marker-stroked"}},{"type":"Feature","geometry":{"type":"Point","coordinates":[5.362235,51.717859]},"properties":{"cellid":"47c6efef315b0fd7","marker-color":"#808080","name":"Unknown: Waterpomp Dorpstraat","title":"Unknown: Waterpomp Dorpstraat","marker-size":"small","marker-symbol":"marker-stroked"}},{"type":"Feature","geometry":{"type":"Point","coordinates":[5.374549,51.735409]},"properties":{"cellid":"47c6f00485c54475","marker-color":"#808080","name":"Unknown: Wieldam Playground","title":"Unknown: Wieldam Playground","marker-size":"small","marker-symbol":"marker-stroked"}},{"type":"Feature","geometry":{"type":"Point","coordinates":[5.371231,51.710834]},"properties":{"cellid":"47c6eff30f3b5ca3","marker-color":"#808080","name":"Unknown: Willems Glijbaan","title":"Unknown: Willems Glijbaan","marker-size":"small","marker-symbol":"marker-stroked"}},{"type":"Feature","geometry":{"type":"Point","coordinates":[5.371169,51.711034]},"properties":{"cellid":"47c6eff308858e2b","marker-color":"#808080","name":"Unknown: Willems Speelveld","title":"Unknown: Willems Speelveld","marker-size":"small","marker-symbol":"marker-stroked"}},{"type":"Feature","geometry":{"type":"Point","coordinates":[5.367761,51.726852]},"properties":{"cellid":"47c6efe31b6dd483","marker-color":"#808080","name":"Unknown: Yellow Bridge","title":"Unknown: Yellow Bridge","marker-size":"small","marker-symbol":"marker-stroked"}},{"type":"Feature","geometry":{"type":"Point","coordinates":[5.3683,51.712194]},"properties":{"cellid":"47c6eff26efdd28f","marker-color":"#808080","name":"Unknown: Zwembad Kwekkelstijn","title":"Unknown: Zwembad Kwekkelstijn","marker-size":"small","marker-symbol":"marker-stroked"}},{"type":"Feature","geometry":{"type":"MultiPolygon","coordinates":[[[[5.399090933204312,51.70730336301622],[5.400109372609191,51.71254364650237],[5.393606800469173,51.712842409989584],[5.392589572894638,51.70760202719059],[5.399090933204312,51.70730336301622]]],[[[5.394624342947837,51.718083191645],[5.395642200469464,51.723324372074785],[5.389137782186602,51.72362294465414],[5.388121137173937,51.71838166496962],[5.394624342947837,51.718083191645]]],[[[5.395642200469464,51.723324372074785],[5.3966603731729625,51.72856595119686],[5.390154742013882,51.72886462306585],[5.389137782186602,51.72362294465414],[5.395642200469464,51.723324372074785]]],[[[5.389137782186602,51.72362294465414],[5.390154742013882,51.72886462306585],[5.383649689738443,51.72916290526627],[5.382633942731879,51.72392112769292],[5.389137782186602,51.72362294465414]]],[[[5.388121137173937,51.71838166496962],[5.389137782186602,51.72362294465414],[5.382633942731879,51.72392112769292],[5.381618510172664,51.71867974888161],[5.388121137173937,51.71838166496962]]],[[[5.387104806837136,51.71314078409438],[5.388121137173937,51.71838166496962],[5.381618510172664,51.71867974888161],[5.380603391922198,51.71343876891443],[5.387104806837136,51.71314078409438]]],[[[5.393606800469173,51.712842409989584],[5.394624342947837,51.718083191645],[5.388121137173937,51.71838166496962],[5.387104806837136,51.71314078409438],[5.393606800469173,51.712842409989584]]],[[[5.392589572894638,51.70760202719059],[5.393606800469173,51.712842409989584],[5.387104806837136,51.71314078409438],[5.386088791037521,51.70790030211043],[5.392589572894638,51.70760202719059]]],[[[5.386088791037521,51.70790030211043],[5.387104806837136,51.71314078409438],[5.380603391922198,51.71343876891443],[5.379588587841962,51.70819818787338],[5.386088791037521,51.70790030211043]]],[[[5.3850730896364984,51.70266021909976],[5.386088791037521,51.70790030211043],[5.379588587841962,51.70819818787338],[5.378574097793519,51.702958005840436],[5.3850730896364984,51.70266021909976]]],[[[5.391572660085483,51.702362043330005],[5.392589572894638,51.70760202719059],[5.386088791037521,51.70790030211043],[5.3850730896364984,51.70266021909976],[5.391572660085483,51.702362043330005]]],[[[5.3980728089315875,51.70206347843355],[5.399090933204312,51.70730336301622],[5.392589572894638,51.70760202719059],[5.391572660085483,51.702362043330005],[5.3980728089315875,51.70206347843355]]],[[[5.330624089997927,51.726292580278034],[5.331630136450667,51.7315351465403],[5.325130303538463,51.73182992612674],[5.324125469401733,51.726587261853496],[5.330624089997927,51.726292580278034]]],[[[5.329618355053931,51.72105041305513],[5.330624089997927,51.726292580278034],[5.324125469401733,51.726587261853496],[5.323120946406367,51.72134499665408],[5.329618355053931,51.72105041305513]]],[[[5.328612931481333,51.71580864495357],[5.329618355053931,51.72105041305513],[5.323120946406367,51.72134499665408],[5.322116734415171,51.71610313061046],[5.328612931481333,51.71580864495357]]],[[[5.327607819142865,51.71056727605526],[5.328612931481333,51.71580864495357],[5.322116734415171,51.71610313061046],[5.3211128332910365,51.71086166380453],[5.327607819142865,51.71056727605526]]],[[[5.326603017901338,51.70532630644203],[5.327607819142865,51.71056727605526],[5.3211128332910365,51.71086166380453],[5.320109242896933,51.70562059631813],[5.326603017901338,51.70532630644203]]],[[[5.37755992163851,51.697718222897485],[5.378574097793519,51.702958005840436],[5.372075684765332,51.70325540364968],[5.3710627195405785,51.698015521847],[5.37755992163851,51.697718222897485]]],[[[5.378574097793519,51.702958005840436],[5.379588587841962,51.70819818787338],[5.373088963516862,51.70849568457712],[5.372075684765332,51.70325540364968],[5.378574097793519,51.702958005840436]]],[[[5.372075684765332,51.70325540364968],[5.373088963516862,51.70849568457712],[5.366589918271039,51.70879279231935],[5.365577850760634,51.703552412625164],[5.372075684765332,51.70325540364968]]],[[[5.3710627195405785,51.698015521847],[5.372075684765332,51.70325540364968],[5.365577850760634,51.703552412625164],[5.364566096410339,51.698312432090475],[5.3710627195405785,51.698015521847]]],[[[5.364566096410339,51.698312432090475],[5.365577850760634,51.703552412625164],[5.359080595988038,51.7038490328646],[5.3580700524562905,51.69860895372558],[5.364566096410339,51.698312432090475]]],[[[5.365577850760634,51.703552412625164],[5.366589918271039,51.70879279231935],[5.3600914523132115,51.7090895111978],[5.359080595988038,51.7038490328646],[5.365577850760634,51.703552412625164]]],[[[5.359080595988038,51.7038490328646],[5.3600914523132115,51.7090895111978],[5.3535935658520115,51.70938584131021],[5.352583920656054,51.70414526446571],[5.359080595988038,51.7038490328646]]],[[[5.3580700524562905,51.69860895372558],[5.359080595988038,51.7038490328646],[5.352583920656054,51.70414526446571],[5.351574587886828,51.69890508685001],[5.3580700524562905,51.69860895372558]]],[[[5.338585397734808,51.69949618795775],[5.339592309147527,51.70473656214391],[5.333097373387553,51.70503162841657],[5.332091672568589,51.69979115613656],[5.338585397734808,51.69949618795775]]],[[[5.332091672568589,51.69979115613656],[5.333097373387553,51.70503162841657],[5.326603017901338,51.70532630644203],[5.325598527619642,51.70008573619572],[5.332091672568589,51.69979115613656]]],[[[5.333097373387553,51.70503162841657],[5.334103385533094,51.71027250002904],[5.327607819142865,51.71056727605526],[5.326603017901338,51.70532630644203],[5.333097373387553,51.70503162841657]]],[[[5.339592309147527,51.70473656214391],[5.340599532253552,51.709977335628025],[5.334103385533094,51.71027250002904],[5.333097373387553,51.70503162841657],[5.339592309147527,51.70473656214391]]],[[[5.346087824973105,51.70444110752622],[5.3470962590959745,51.70968178275435],[5.340599532253552,51.709977335628025],[5.339592309147527,51.70473656214391],[5.346087824973105,51.70444110752622]]],[[[5.345079702910262,51.699200831561484],[5.346087824973105,51.70444110752622],[5.339592309147527,51.70473656214391],[5.338585397734808,51.69949618795775],[5.345079702910262,51.699200831561484]]],[[[5.351574587886828,51.69890508685001],[5.352583920656054,51.70414526446571],[5.346087824973105,51.70444110752622],[5.345079702910262,51.699200831561484],[5.351574587886828,51.69890508685001]]],[[[5.352583920656054,51.70414526446571],[5.3535935658520115,51.70938584131021],[5.3470962590959745,51.70968178275435],[5.346087824973105,51.70444110752622],[5.352583920656054,51.70414526446571]]],[[[5.3535935658520115,51.70938584131021],[5.354603523612434,51.714626817301664],[5.348105005416446,51.71492285716404],[5.3470962590959745,51.70968178275435],[5.3535935658520115,51.70938584131021]]],[[[5.354603523612434,51.714626817301664],[5.355613794075137,51.719868192358156],[5.349114064072181,51.72016433067337],[5.348105005416446,51.71492285716404],[5.354603523612434,51.714626817301664]]],[[[5.348105005416446,51.71492285716404],[5.349114064072181,51.72016433067337],[5.342614914095287,51.720460080162695],[5.341607067190305,51.71521850832824],[5.348105005416446,51.71492285716404]]],[[[5.3470962590959745,51.70968178275435],[5.348105005416446,51.71492285716404],[5.341607067190305,51.71521850832824],[5.340599532253552,51.709977335628025],[5.3470962590959745,51.70968178275435]]],[[[5.340599532253552,51.709977335628025],[5.341607067190305,51.71521850832824],[5.335109709142475,51.71551377089213],[5.334103385533094,51.71027250002904],[5.340599532253552,51.709977335628025]]],[[[5.334103385533094,51.71027250002904],[5.335109709142475,51.71551377089213],[5.328612931481333,51.71580864495357],[5.327607819142865,51.71056727605526],[5.334103385533094,51.71027250002904]]],[[[5.335109709142475,51.71551377089213],[5.336116344353039,51.72075544092398],[5.329618355053931,51.72105041305513],[5.328612931481333,51.71580864495357],[5.335109709142475,51.71551377089213]]],[[[5.341607067190305,51.71521850832824],[5.342614914095287,51.720460080162695],[5.336116344353039,51.72075544092398],[5.335109709142475,51.71551377089213],[5.341607067190305,51.71521850832824]]],[[[5.342614914095287,51.720460080162695],[5.34362307310608,51.72570205104944],[5.337123291302215,51.72599751004267],[5.336116344353039,51.72075544092398],[5.342614914095287,51.720460080162695]]],[[[5.336116344353039,51.72075544092398],[5.337123291302215,51.72599751004267],[5.330624089997927,51.726292580278034],[5.329618355053931,51.72105041305513],[5.336116344353039,51.72075544092398]]],[[[5.337123291302215,51.72599751004267],[5.338130550127503,51.731239978166215],[5.331630136450667,51.7315351465403],[5.330624089997927,51.726292580278034],[5.337123291302215,51.72599751004267]]],[[[5.34362307310608,51.72570205104944],[5.344631544360341,51.73094442090649],[5.338130550127503,51.731239978166215],[5.337123291302215,51.72599751004267],[5.34362307310608,51.72570205104944]]],[[[5.350123435200912,51.72540620320042],[5.351133118940455,51.73064847466318],[5.344631544360341,51.73094442090649],[5.34362307310608,51.72570205104944],[5.350123435200912,51.72540620320042]]],[[[5.349114064072181,51.72016433067337],[5.350123435200912,51.72540620320042],[5.34362307310608,51.72570205104944],[5.342614914095287,51.720460080162695],[5.349114064072181,51.72016433067337]]],[[[5.355613794075137,51.719868192358156],[5.356624377378013,51.725109966397724],[5.350123435200912,51.72540620320042],[5.349114064072181,51.72016433067337],[5.355613794075137,51.719868192358156]]],[[[5.356624377378013,51.725109966397724],[5.357635273659033,51.73035213933836],[5.351133118940455,51.73064847466318],[5.350123435200912,51.72540620320042],[5.356624377378013,51.725109966397724]]],[[[5.3631258994285895,51.72481334054346],[5.364138008307166,51.73005541483411],[5.357635273659033,51.73035213933836],[5.356624377378013,51.725109966397724],[5.3631258994285895,51.72481334054346]]],[[[5.369628001143758,51.72451632553979],[5.370641322675856,51.72975830105259],[5.364138008307166,51.73005541483411],[5.3631258994285895,51.72481334054346],[5.369628001143758,51.72451632553979]]],[[[5.368614993324434,51.71927474885862],[5.369628001143758,51.72451632553979],[5.3631258994285895,51.72481334054346],[5.362114103895477,51.719571665119176],[5.368614993324434,51.71927474885862]]],[[[5.362114103895477,51.719571665119176],[5.3631258994285895,51.72481334054346],[5.356624377378013,51.725109966397724],[5.355613794075137,51.719868192358156],[5.362114103895477,51.719571665119176]]],[[[5.361102621569702,51.7143303886433],[5.362114103895477,51.719571665119176],[5.355613794075137,51.719868192358156],[5.354603523612434,51.714626817301664],[5.361102621569702,51.7143303886433]]],[[[5.3600914523132115,51.7090895111978],[5.361102621569702,51.7143303886433],[5.354603523612434,51.714626817301664],[5.3535935658520115,51.70938584131021],[5.3600914523132115,51.7090895111978]]],[[[5.366589918271039,51.70879279231935],[5.3676022990795955,51.71403357109116],[5.361102621569702,51.7143303886433],[5.3600914523132115,51.7090895111978],[5.366589918271039,51.70879279231935]]],[[[5.3676022990795955,51.71403357109116],[5.368614993324434,51.71927474885862],[5.362114103895477,51.719571665119176],[5.361102621569702,51.7143303886433],[5.3676022990795955,51.71403357109116]]],[[[5.374102555933374,51.71373636454745],[5.375116462153147,51.7189774434787],[5.368614993324434,51.71927474885862],[5.3676022990795955,51.71403357109116],[5.374102555933374,51.71373636454745]]],[[[5.373088963516862,51.70849568457712],[5.374102555933374,51.71373636454745],[5.3676022990795955,51.71403357109116],[5.366589918271039,51.70879279231935],[5.373088963516862,51.70849568457712]]],[[[5.379588587841962,51.70819818787338],[5.380603391922198,51.71343876891443],[5.374102555933374,51.71373636454745],[5.373088963516862,51.70849568457712],[5.379588587841962,51.70819818787338]]],[[[5.380603391922198,51.71343876891443],[5.381618510172664,51.71867974888161],[5.375116462153147,51.7189774434787],[5.374102555933374,51.71373636454745],[5.380603391922198,51.71343876891443]]],[[[5.381618510172664,51.71867974888161],[5.382633942731879,51.72392112769292],[5.376130682314544,51.72421892128888],[5.375116462153147,51.7189774434787],[5.381618510172664,51.71867974888161]]],[[[5.375116462153147,51.7189774434787],[5.376130682314544,51.72421892128888],[5.369628001143758,51.72451632553979],[5.368614993324434,51.71927474885862],[5.375116462153147,51.7189774434787]]],[[[5.376130682314544,51.72421892128888],[5.377145216556008,51.72946079789592],[5.370641322675856,51.72975830105259],[5.369628001143758,51.72451632553979],[5.376130682314544,51.72421892128888]]],[[[5.382633942731879,51.72392112769292],[5.383649689738443,51.72916290526627],[5.377145216556008,51.72946079789592],[5.376130682314544,51.72421892128888],[5.382633942731879,51.72392112769292]]],[[[5.383649689738443,51.72916290526627],[5.384665751331032,51.73440508151956],[5.378160065016061,51.73470307321772],[5.377145216556008,51.72946079789592],[5.383649689738443,51.72916290526627]]],[[[5.377145216556008,51.72946079789592],[5.378160065016061,51.73470307321772],[5.371654958059089,51.73500067531494],[5.370641322675856,51.72975830105259],[5.377145216556008,51.72946079789592]]],[[[5.378160065016061,51.73470307321772],[5.3791752278333025,51.739945747172136],[5.372668907431906,51.740243448244705],[5.371654958059089,51.73500067531494],[5.378160065016061,51.73470307321772]]],[[[5.384665751331032,51.73440508151956],[5.3856821276484075,51.7396476563706],[5.3791752278333025,51.739945747172136],[5.378160065016061,51.73470307321772],[5.384665751331032,51.73440508151956]]],[[[5.3856821276484075,51.7396476563706],[5.386698818829405,51.74489062973717],[5.380190705146416,51.74518881967693],[5.3791752278333025,51.739945747172136],[5.3856821276484075,51.7396476563706]]],[[[5.3791752278333025,51.739945747172136],[5.380190705146416,51.74518881967693],[5.373683170932829,51.74548661975967],[5.372668907431906,51.740243448244705],[5.3791752278333025,51.739945747172136]]],[[[5.365150430669418,51.73529788790907],[5.366163166653632,51.74054075968619],[5.359658005707802,51.74083768159448],[5.358646483056253,51.73559471109798],[5.365150430669418,51.73529788790907]]],[[[5.371654958059089,51.73500067531494],[5.372668907431906,51.740243448244705],[5.366163166653632,51.74054075968619],[5.365150430669418,51.73529788790907],[5.371654958059089,51.73500067531494]]],[[[5.370641322675856,51.72975830105259],[5.371654958059089,51.73500067531494],[5.365150430669418,51.73529788790907],[5.364138008307166,51.73005541483411],[5.370641322675856,51.72975830105259]]],[[[5.364138008307166,51.73005541483411],[5.365150430669418,51.73529788790907],[5.358646483056253,51.73559471109798],[5.357635273659033,51.73035213933836],[5.364138008307166,51.73005541483411]]],[[[5.357635273659033,51.73035213933836],[5.358646483056253,51.73559471109798],[5.352143115428709,51.73589114497958],[5.351133118940455,51.73064847466318],[5.357635273659033,51.73035213933836]]],[[[5.358646483056253,51.73559471109798],[5.359658005707802,51.74083768159448],[5.353153424803647,51.74113421406753],[5.352143115428709,51.73589114497958],[5.358646483056253,51.73559471109798]]],[[[5.352143115428709,51.73589114497958],[5.353153424803647,51.74113421406753],[5.346649424150307,51.74143035720329],[5.3456403279958105,51.73618718965181],[5.352143115428709,51.73589114497958]]],[[[5.351133118940455,51.73064847466318],[5.352143115428709,51.73589114497958],[5.3456403279958105,51.73618718965181],[5.344631544360341,51.73094442090649],[5.351133118940455,51.73064847466318]]],[[[5.344631544360341,51.73094442090649],[5.3456403279958105,51.73618718965181],[5.339138120966487,51.73648284521259],[5.338130550127503,51.731239978166215],[5.344631544360341,51.73094442090649]]],[[[5.338130550127503,51.731239978166215],[5.339138120966487,51.73648284521259],[5.332636494549575,51.73677811175994],[5.331630136450667,51.7315351465403],[5.338130550127503,51.731239978166215]]],[[[5.339138120966487,51.73648284521259],[5.340146003956827,51.74172611109973],[5.333643164432159,51.74202147585486],[5.332636494549575,51.73677811175994],[5.339138120966487,51.73648284521259]]],[[[5.3456403279958105,51.73618718965181],[5.346649424150307,51.74143035720329],[5.340146003956827,51.74172611109973],[5.339138120966487,51.73648284521259],[5.3456403279958105,51.73618718965181]]],[[[5.332636494549575,51.73677811175994],[5.333643164432159,51.74202147585486],[5.327140905785168,51.7423164515667],[5.326135448953826,51.737072989391834],[5.332636494549575,51.73677811175994]]],[[[5.331630136450667,51.7315351465403],[5.332636494549575,51.73677811175994],[5.326135448953826,51.737072989391834],[5.325130303538463,51.73182992612674],[5.331630136450667,51.7315351465403]]],[[[5.398697664681625,51.7390503051892],[5.399716783765011,51.74429307989502],[5.393207511772173,51.74459204984249],[5.392189606667714,51.73934917574224],[5.398697664681625,51.7390503051892]]],[[[5.392189606667714,51.73934917574224],[5.393207511772173,51.74459204984249],[5.386698818829405,51.74489062973717],[5.3856821276484075,51.7396476563706],[5.392189606667714,51.73934917574224]]],[[[5.3911720167946156,51.73410670012261],[5.392189606667714,51.73934917574224],[5.3856821276484075,51.7396476563706],[5.384665751331032,51.73440508151956],[5.3911720167946156,51.73410670012261]]],[[[5.390154742013882,51.72886462306585],[5.3911720167946156,51.73410670012261],[5.384665751331032,51.73440508151956],[5.383649689738443,51.72916290526627],[5.390154742013882,51.72886462306585]]],[[[5.3966603731729625,51.72856595119686],[5.397678861197326,51.73380792892906],[5.3911720167946156,51.73410670012261],[5.390154742013882,51.72886462306585],[5.3966603731729625,51.72856595119686]]],[[[5.397678861197326,51.73380792892906],[5.398697664681625,51.7390503051892],[5.392189606667714,51.73934917574224],[5.3911720167946156,51.73410670012261],[5.397678861197326,51.73380792892906]]]]},"properties":{"stroke":"#ff9900","stroke-opacity":0.35,"fill":"#ff9900","fill-opacity":0.05,"stroke-width":1}},{"type":"Feature","geometry":{"type":"MultiPolygon","coordinates":[[[[5.405592871757457,51.70700430948966],[5.407632489976501,51.71748507636703],[5.394624342947837,51.718083191645],[5.392589572894638,51.70760202719059],[5.405592871757457,51.70700430948966]]],[[[5.394624342947837,51.718083191645],[5.3966603731729625,51.72856595119686],[5.383649689738443,51.72916290526627],[5.381618510172664,51.71867974888161],[5.394624342947837,51.718083191645]]],[[[5.392589572894638,51.70760202719059],[5.394624342947837,51.718083191645],[5.381618510172664,51.71867974888161],[5.379588587841962,51.70819818787338],[5.392589572894638,51.70760202719059]]],[[[5.3905560619030375,51.69712245848975],[5.392589572894638,51.70760202719059],[5.379588587841962,51.70819818787338],[5.37755992163851,51.697718222897485],[5.3905560619030375,51.69712245848975]]],[[[5.403554515534156,51.69652513808641],[5.405592871757457,51.70700430948966],[5.392589572894638,51.70760202719059],[5.3905560619030375,51.69712245848975],[5.403554515534156,51.69652513808641]]],[[[5.329618355053931,51.72105041305513],[5.331630136450667,51.7315351465403],[5.318631051599432,51.7321243170235],[5.316624118618649,51.72163919181875],[5.329618355053931,51.72105041305513]]],[[[5.327607819142865,51.71056727605526],[5.329618355053931,51.72105041305513],[5.316624118618649,51.72163919181875],[5.314618428185689,51.711155663374754],[5.327607819142865,51.71056727605526]]],[[[5.325598527619642,51.70008573619572],[5.327607819142865,51.71056727605526],[5.314618428185689,51.711155663374754],[5.312613979205231,51.70067373234635],[5.325598527619642,51.70008573619572]]],[[[5.37755992163851,51.697718222897485],[5.379588587841962,51.70819818787338],[5.366589918271039,51.70879279231935],[5.364566096410339,51.698312432090475],[5.37755992163851,51.697718222897485]]],[[[5.364566096410339,51.698312432090475],[5.366589918271039,51.70879279231935],[5.3535935658520115,51.70938584131021],[5.351574587886828,51.69890508685001],[5.364566096410339,51.698312432090475]]],[[[5.338585397734808,51.69949618795775],[5.340599532253552,51.709977335628025],[5.327607819142865,51.71056727605526],[5.325598527619642,51.70008573619572],[5.338585397734808,51.69949618795775]]],[[[5.351574587886828,51.69890508685001],[5.3535935658520115,51.70938584131021],[5.340599532253552,51.709977335628025],[5.338585397734808,51.69949618795775],[5.351574587886828,51.69890508685001]]],[[[5.3535935658520115,51.70938584131021],[5.355613794075137,51.719868192358156],[5.342614914095287,51.720460080162695],[5.340599532253552,51.709977335628025],[5.3535935658520115,51.70938584131021]]],[[[5.340599532253552,51.709977335628025],[5.342614914095287,51.720460080162695],[5.329618355053931,51.72105041305513],[5.327607819142865,51.71056727605526],[5.340599532253552,51.709977335628025]]],[[[5.342614914095287,51.720460080162695],[5.344631544360341,51.73094442090649],[5.331630136450667,51.7315351465403],[5.329618355053931,51.72105041305513],[5.342614914095287,51.720460080162695]]],[[[5.355613794075137,51.719868192358156],[5.357635273659033,51.73035213933836],[5.344631544360341,51.73094442090649],[5.342614914095287,51.720460080162695],[5.355613794075137,51.719868192358156]]],[[[5.368614993324434,51.71927474885862],[5.370641322675856,51.72975830105259],[5.357635273659033,51.73035213933836],[5.355613794075137,51.719868192358156],[5.368614993324434,51.71927474885862]]],[[[5.366589918271039,51.70879279231935],[5.368614993324434,51.71927474885862],[5.355613794075137,51.719868192358156],[5.3535935658520115,51.70938584131021],[5.366589918271039,51.70879279231935]]],[[[5.379588587841962,51.70819818787338],[5.381618510172664,51.71867974888161],[5.368614993324434,51.71927474885862],[5.366589918271039,51.70879279231935],[5.379588587841962,51.70819818787338]]],[[[5.381618510172664,51.71867974888161],[5.383649689738443,51.72916290526627],[5.370641322675856,51.72975830105259],[5.368614993324434,51.71927474885862],[5.381618510172664,51.71867974888161]]],[[[5.383649689738443,51.72916290526627],[5.3856821276484075,51.7396476563706],[5.372668907431906,51.740243448244705],[5.370641322675856,51.72975830105259],[5.383649689738443,51.72916290526627]]],[[[5.3856821276484075,51.7396476563706],[5.387715825012944,51.750134001537],[5.374697748700466,51.75073018977758],[5.372668907431906,51.740243448244705],[5.3856821276484075,51.7396476563706]]],[[[5.370641322675856,51.72975830105259],[5.372668907431906,51.740243448244705],[5.359658005707802,51.74083768159448],[5.357635273659033,51.73035213933836],[5.370641322675856,51.72975830105259]]],[[[5.357635273659033,51.73035213933836],[5.359658005707802,51.74083768159448],[5.346649424150307,51.74143035720329],[5.344631544360341,51.73094442090649],[5.357635273659033,51.73035213933836]]],[[[5.344631544360341,51.73094442090649],[5.346649424150307,51.74143035720329],[5.333643164432159,51.74202147585486],[5.331630136450667,51.7315351465403],[5.344631544360341,51.73094442090649]]],[[[5.331630136450667,51.7315351465403],[5.333643164432159,51.74202147585486],[5.320639228224622,51.742611038333315],[5.318631051599432,51.7321243170235],[5.331630136450667,51.7315351465403]]],[[[5.398697664681625,51.7390503051892],[5.400736218586714,51.74953625296422],[5.387715825012944,51.750134001537],[5.3856821276484075,51.7396476563706],[5.398697664681625,51.7390503051892]]],[[[5.3966603731729625,51.72856595119686],[5.398697664681625,51.7390503051892],[5.3856821276484075,51.7396476563706],[5.383649689738443,51.72916290526627],[5.3966603731729625,51.72856595119686]]]]},"properties":{"stroke":"#FF2020","stroke-opacity":0.35,"fill":"#FF2020","fill-opacity":0.05,"stroke-width":1.5}}],"type":"FeatureCollection"}
